{"type": "FeatureCollection", "features": [{"type": "Feature", "geometry": {"coordinates": [27.1323579, -32.2973193], "type": "Point"}, "properties": {"name": "Ikhwezi Women Support Centre in Cathcart (20)", "actualname": "Ikhwezi Women Support Centre", "subregion": "Cathcart", "beds": "20"}}, {"type": "Feature", "geometry": {"coordinates": [27.9058596, -32.9999033], "type": "Point"}, "properties": {"name": "Victory House  in East London, Southernwood (20)", "actualname": "Victory House ", "subregion": "East London, Southernwood", "beds": "20"}}, {"type": "Feature", "geometry": {"coordinates": [27.9058596, -32.9999033], "type": "Point"}, "properties": {"name": "Masimanyane Shelter  in East London, Southernwood (20)", "actualname": "Masimanyane Shelter ", "subregion": "East London, Southernwood", "beds": "20"}}, {"type": "Feature", "geometry": {"coordinates": [24.9101544, -34.0506714], "type": "Point"}, "properties": {"name": "On Eagles Wings Multipurpose Centre in Jeffrey'S Bay (20)", "actualname": "On Eagles Wings Multipurpose Centre", "subregion": "Jeffrey'S Bay", "beds": "20"}}, {"type": "Feature", "geometry": {"coordinates": [27.4203974, -32.8938109], "type": "Point"}, "properties": {"name": "Khanyisa Victim Empowerment Centre in King Williams Town (20)", "actualname": "Khanyisa Victim Empowerment Centre", "subregion": "King Williams Town", "beds": "20"}}, {"type": "Feature", "geometry": {"coordinates": [25.6022423, -33.9608369], "type": "Point"}, "properties": {"name": "Rape Crisis Centre (Shelter Under Construction) in Port Elizabeth (20)", "actualname": "Rape Crisis Centre (Shelter Under Construction)", "subregion": "Port Elizabeth", "beds": "20"}}, {"type": "Feature", "geometry": {"coordinates": [25.4141193, -33.768717], "type": "Point"}, "properties": {"name": "Kwanobuhle Outreach Centre (Government-Run Shelter) in Uitenhage (20)", "actualname": "Kwanobuhle Outreach Centre (Government-Run Shelter)", "subregion": "Uitenhage", "beds": "20"}}, {"type": "Feature", "geometry": {"coordinates": [28.3111262, -28.2423025], "type": "Point"}, "properties": {"name": "Child & Family Welfare in Bethlehem (23)", "actualname": "Child & Family Welfare", "subregion": "Bethlehem", "beds": "23"}}, {"type": "Feature", "geometry": {"coordinates": [27.4908738, -26.9110891], "type": "Point"}, "properties": {"name": "Tumahole Victim Support Centre  in Parys (23)", "actualname": "Tumahole Victim Support Centre ", "subregion": "Parys", "beds": "23"}}, {"type": "Feature", "geometry": {"coordinates": [28.824722, -28.5530273], "type": "Point"}, "properties": {"name": "Thusanang Advice Centre Shelter  in Qwaqwa (23)", "actualname": "Thusanang Advice Centre Shelter ", "subregion": "Qwaqwa", "beds": "23"}}, {"type": "Feature", "geometry": {"coordinates": [26.7732162, -28.0045655], "type": "Point"}, "properties": {"name": "Goldfields Family Advice Organisation in Welkom (23)", "actualname": "Goldfields Family Advice Organisation", "subregion": "Welkom", "beds": "23"}}, {"type": "Feature", "geometry": {"coordinates": [28.0976369, -26.1033012], "type": "Point"}, "properties": {"name": "Bombani Shelter in Alexandra (24)", "actualname": "Bombani Shelter", "subregion": "Alexandra", "beds": "24"}}, {"type": "Feature", "geometry": {"coordinates": [28.3695699, -26.1510854], "type": "Point"}, "properties": {"name": "Antioch Place Of Shelter in Benoni (24)", "actualname": "Antioch Place Of Shelter", "subregion": "Benoni", "beds": "24"}}, {"type": "Feature", "geometry": {"coordinates": [28.1628568, -26.2185888], "type": "Point"}, "properties": {"name": "Ctc Bethesda House in Ekurhuleni (24)", "actualname": "Ctc Bethesda House", "subregion": "Ekurhuleni", "beds": "24"}}, {"type": "Feature", "geometry": {"coordinates": [28.1239717, -26.3223942], "type": "Point"}, "properties": {"name": "Amcare Hannah House in Alberton (24)", "actualname": "Amcare Hannah House", "subregion": "Alberton", "beds": "24"}}, {"type": "Feature", "geometry": {"coordinates": [28.1628568, -26.2185888], "type": "Point"}, "properties": {"name": "Powa (East Rand) in Ekurhuleni (24)", "actualname": "Powa (East Rand)", "subregion": "Ekurhuleni", "beds": "24"}}, {"type": "Feature", "geometry": {"coordinates": [28.1628568, -26.2185888], "type": "Point"}, "properties": {"name": "Mercy Haven in Ekurhuleni (24)", "actualname": "Mercy Haven", "subregion": "Ekurhuleni", "beds": "24"}}, {"type": "Feature", "geometry": {"coordinates": [28.1628568, -26.2185888], "type": "Point"}, "properties": {"name": "House Of Hope (T/A Leratong Crisis Centre) in Ekurhuleni (24)", "actualname": "House Of Hope (T/A Leratong Crisis Centre)", "subregion": "Ekurhuleni", "beds": "24"}}, {"type": "Feature", "geometry": {"coordinates": [28.4221519, -26.1452452], "type": "Point"}, "properties": {"name": "Theodora Ndaba Victim Support Centre in Daveyton (24)", "actualname": "Theodora Ndaba Victim Support Centre", "subregion": "Daveyton", "beds": "24"}}, {"type": "Feature", "geometry": {"coordinates": [27.9717606, -26.1704415], "type": "Point"}, "properties": {"name": "Usindiso in Johannesburg Metro (24)", "actualname": "Usindiso", "subregion": "Johannesburg Metro", "beds": "24"}}, {"type": "Feature", "geometry": {"coordinates": [27.9717606, -26.1704415], "type": "Point"}, "properties": {"name": "Ikhaya Lethemba (Government-Run Shelter) in Johannesburg Metro (24)", "actualname": "Ikhaya Lethemba (Government-Run Shelter)", "subregion": "Johannesburg Metro", "beds": "24"}}, {"type": "Feature", "geometry": {"coordinates": [27.9717606, -26.1704415], "type": "Point"}, "properties": {"name": "Eldorado Park Women'S Forum in Johannesburg Metro (24)", "actualname": "Eldorado Park Women'S Forum", "subregion": "Johannesburg Metro", "beds": "24"}}, {"type": "Feature", "geometry": {"coordinates": [27.9717606, -26.1704415], "type": "Point"}, "properties": {"name": "Home Of Hope in Johannesburg Metro (24)", "actualname": "Home Of Hope", "subregion": "Johannesburg Metro", "beds": "24"}}, {"type": "Feature", "geometry": {"coordinates": [27.9717606, -26.1704415], "type": "Point"}, "properties": {"name": "Little Saints Bethany in Johannesburg Metro (24)", "actualname": "Little Saints Bethany", "subregion": "Johannesburg Metro", "beds": "24"}}, {"type": "Feature", "geometry": {"coordinates": [27.8309784, -26.3140736], "type": "Point"}, "properties": {"name": "Nisaa Institute For Women'S Development in Lenasia Extension 1 (24)", "actualname": "Nisaa Institute For Women'S Development", "subregion": "Lenasia Extension 1", "beds": "24"}}, {"type": "Feature", "geometry": {"coordinates": [28.2499001, -26.1789171], "type": "Point"}, "properties": {"name": "Beth Shan Shelter in North Rand (24)", "actualname": "Beth Shan Shelter", "subregion": "North Rand", "beds": "24"}}, {"type": "Feature", "geometry": {"coordinates": [28.7666681, -25.7732834], "type": "Point"}, "properties": {"name": "Mercy House in Sizanani Village (24)", "actualname": "Mercy House", "subregion": "Sizanani Village", "beds": "24"}}, {"type": "Feature", "geometry": {"coordinates": [28.2499001, -26.1789171], "type": "Point"}, "properties": {"name": "Mali Martin in North Rand (24)", "actualname": "Mali Martin", "subregion": "North Rand", "beds": "24"}}, {"type": "Feature", "geometry": {"coordinates": [28.2499001, -26.1789171], "type": "Point"}, "properties": {"name": "The Potter House in North Rand (24)", "actualname": "The Potter House", "subregion": "North Rand", "beds": "24"}}, {"type": "Feature", "geometry": {"coordinates": [28.1561533, -25.7496565], "type": "Point"}, "properties": {"name": "Youth For Survival in Pretoria West (24)", "actualname": "Youth For Survival", "subregion": "Pretoria West", "beds": "24"}}, {"type": "Feature", "geometry": {"coordinates": [28.0830047, -25.7730891], "type": "Point"}, "properties": {"name": "Re-Bafenyi Victim Empowerment in Pretoria, Atteridgeville (24)", "actualname": "Re-Bafenyi Victim Empowerment", "subregion": "Pretoria, Atteridgeville", "beds": "24"}}, {"type": "Feature", "geometry": {"coordinates": [28.2058768, -26.6833196], "type": "Point"}, "properties": {"name": "Bella Maria in Sedibeng (24)", "actualname": "Bella Maria", "subregion": "Sedibeng", "beds": "24"}}, {"type": "Feature", "geometry": {"coordinates": [27.4556388, -26.3213939], "type": "Point"}, "properties": {"name": "Are Areng in West Rand (24)", "actualname": "Are Areng", "subregion": "West Rand", "beds": "24"}}, {"type": "Feature", "geometry": {"coordinates": [27.4556388, -26.3213939], "type": "Point"}, "properties": {"name": "Polokego in West Rand (24)", "actualname": "Polokego", "subregion": "West Rand", "beds": "24"}}, {"type": "Feature", "geometry": {"coordinates": [27.3851496, -26.4011578], "type": "Point"}, "properties": {"name": "Savf Deurgangshuis in Carltonville (24)", "actualname": "Savf Deurgangshuis", "subregion": "Carltonville", "beds": "24"}}, {"type": "Feature", "geometry": {"coordinates": [27.9161125, -26.1794173], "type": "Point"}, "properties": {"name": "Powa (West Rand) in Florida (24)", "actualname": "Powa (West Rand)", "subregion": "Florida", "beds": "24"}}, {"type": "Feature", "geometry": {"coordinates": [27.4556388, -26.3213939], "type": "Point"}, "properties": {"name": "Wawa Toekomsrus in West Rand (24)", "actualname": "Wawa Toekomsrus", "subregion": "West Rand", "beds": "24"}}, {"type": "Feature", "geometry": {"coordinates": [30.2343141, -28.1649792], "type": "Point"}, "properties": {"name": "Dundee Crisis Centre in Dundee (31)", "actualname": "Dundee Crisis Centre", "subregion": "Dundee", "beds": "31"}}, {"type": "Feature", "geometry": {"coordinates": [31.0218404, -29.8586804], "type": "Point"}, "properties": {"name": "Kerr House in Durban (31)", "actualname": "Kerr House", "subregion": "Durban", "beds": "31"}}, {"type": "Feature", "geometry": {"coordinates": [31.0218404, -29.8586804], "type": "Point"}, "properties": {"name": "Kenilworth Respite Centre in Durban (31)", "actualname": "Kenilworth Respite Centre", "subregion": "Durban", "beds": "31"}}, {"type": "Feature", "geometry": {"coordinates": [30.3794118, -29.6006068], "type": "Point"}, "properties": {"name": "Abrina Esther House in Pietermaritzburg (31)", "actualname": "Abrina Esther House", "subregion": "Pietermaritzburg", "beds": "31"}}, {"type": "Feature", "geometry": {"coordinates": [30.3794118, -29.6006068], "type": "Point"}, "properties": {"name": "The Haven in Pietermaritzburg (31)", "actualname": "The Haven", "subregion": "Pietermaritzburg", "beds": "31"}}, {"type": "Feature", "geometry": {"coordinates": [30.8384093, -29.8345022], "type": "Point"}, "properties": {"name": "Open Door Crisis Centre in Pinetown (31)", "actualname": "Open Door Crisis Centre", "subregion": "Pinetown", "beds": "31"}}, {"type": "Feature", "geometry": {"coordinates": [30.8384093, -29.8345022], "type": "Point"}, "properties": {"name": "Ethembeni Crisis Centre in Pinetown (31)", "actualname": "Ethembeni Crisis Centre", "subregion": "Pinetown", "beds": "31"}}, {"type": "Feature", "geometry": {"coordinates": [31.3798921, -29.133038], "type": "Point"}, "properties": {"name": "The House Of Hope And Recovery in Sundumbili (31)", "actualname": "The House Of Hope And Recovery", "subregion": "Sundumbili", "beds": "31"}}, {"type": "Feature", "geometry": {"coordinates": [29.4486263, -23.8961708], "type": "Point"}, "properties": {"name": "Ekuphumleni Restoration Home Thyrest in Polokwane (50)", "actualname": "Ekuphumleni Restoration Home Thyrest", "subregion": "Polokwane", "beds": "50"}}, {"type": "Feature", "geometry": {"coordinates": [29.4486263, -23.8961708], "type": "Point"}, "properties": {"name": "Khuseleka One Stop Centre (Government-Run Shelter) in Polokwane (50)", "actualname": "Khuseleka One Stop Centre (Government-Run Shelter)", "subregion": "Polokwane", "beds": "50"}}, {"type": "Feature", "geometry": {"coordinates": [30.5394232, -25.9573638], "type": "Point"}, "properties": {"name": "Badplass Shelter in Badplass (4)", "actualname": "Badplass Shelter", "subregion": "Badplass", "beds": "4"}}, {"type": "Feature", "geometry": {"coordinates": [28.7128468, -25.4317963], "type": "Point"}, "properties": {"name": "Leseding Women'S Shelter (Government-Run Shelter) in Kwamhlanga (4)", "actualname": "Leseding Women'S Shelter (Government-Run Shelter)", "subregion": "Kwamhlanga", "beds": "4"}}, {"type": "Feature", "geometry": {"coordinates": [31.283333, -25.633333], "type": "Point"}, "properties": {"name": "Louiville Shelter (Government-Run Shelter) in Low'S Creek (4)", "actualname": "Louiville Shelter (Government-Run Shelter)", "subregion": "Low'S Creek", "beds": "4"}}, {"type": "Feature", "geometry": {"coordinates": [31.2382884, -24.9865602], "type": "Point"}, "properties": {"name": "Calcultta Shelter in Malubane Mkhuhlu (4)", "actualname": "Calcultta Shelter", "subregion": "Malubane Mkhuhlu", "beds": "4"}}, {"type": "Feature", "geometry": {"coordinates": [29.4639354, -25.769902], "type": "Point"}, "properties": {"name": "Victim Support Centre (Shelter Closed But Psychosocial Services Still On Offer) in Middleburg (4)", "actualname": "Victim Support Centre (Shelter Closed But Psychosocial Services Still On Offer)", "subregion": "Middleburg", "beds": "4"}}, {"type": "Feature", "geometry": {"coordinates": [28.5344444, -25.1027778], "type": "Point"}, "properties": {"name": "Tirisano Victim Empowerment Centre in Mmametlhake (4)", "actualname": "Tirisano Victim Empowerment Centre", "subregion": "Mmametlhake", "beds": "4"}}, {"type": "Feature", "geometry": {"coordinates": [31.162448, -25.4260949], "type": "Point"}, "properties": {"name": "Grace Shelter in Msogwaba (4)", "actualname": "Grace Shelter", "subregion": "Msogwaba", "beds": "4"}}, {"type": "Feature", "geometry": {"coordinates": [30.9694163, -25.4752984], "type": "Point"}, "properties": {"name": "Grip Shelter in Nelspruit (4)", "actualname": "Grip Shelter", "subregion": "Nelspruit", "beds": "4"}}, {"type": "Feature", "geometry": {"coordinates": [31.2097022, -24.7241579], "type": "Point"}, "properties": {"name": "Mhala Shelter in Thulamahashe (4)", "actualname": "Mhala Shelter", "subregion": "Thulamahashe", "beds": "4"}}, {"type": "Feature", "geometry": {"coordinates": [27.5583897, -25.7538196], "type": "Point"}, "properties": {"name": "Grace Help Shelter in Mooi Nooi (118)", "actualname": "Grace Help Shelter", "subregion": "Mooi Nooi", "beds": "118"}}, {"type": "Feature", "geometry": {"coordinates": [24.0131202, -30.6766303], "type": "Point"}, "properties": {"name": "Ethembeni Community  And Trauma Centre in De Aar (6)", "actualname": "Ethembeni Community  And Trauma Centre", "subregion": "De Aar", "beds": "6"}}, {"type": "Feature", "geometry": {"coordinates": [21.2368084, -28.3952677], "type": "Point"}, "properties": {"name": "Bopanang One Stop Centre (Government-Run Shelter) in Upington (6)", "actualname": "Bopanang One Stop Centre (Government-Run Shelter)", "subregion": "Upington", "beds": "6"}}, {"type": "Feature", "geometry": {"coordinates": [24.7499112, -28.7282384], "type": "Point"}, "properties": {"name": "Kimberely Shelter (Government-Run Shelter) in Kimberley (6)", "actualname": "Kimberely Shelter (Government-Run Shelter)", "subregion": "Kimberley", "beds": "6"}}, {"type": "Feature", "geometry": {"coordinates": [24.7499112, -28.7282384], "type": "Point"}, "properties": {"name": "Tamar Shelter (Currenly Under Renovation) in Kimberley (6)", "actualname": "Tamar Shelter (Currenly Under Renovation)", "subregion": "Kimberley", "beds": "6"}}, {"type": "Feature", "geometry": {"coordinates": [18.5017948, -33.96526], "type": "Point"}, "properties": {"name": "Saartjie Baartman Womens Centre in Athlone (17)", "actualname": "Saartjie Baartman Womens Centre", "subregion": "Athlone", "beds": "17"}}, {"type": "Feature", "geometry": {"coordinates": [18.4869555, -33.5062662], "type": "Point"}, "properties": {"name": "United Sanctuary Against Abuse in Atlantis (17)", "actualname": "United Sanctuary Against Abuse", "subregion": "Atlantis", "beds": "17"}}, {"type": "Feature", "geometry": {"coordinates": [18.4721169, -33.9860035], "type": "Point"}, "properties": {"name": "Mater Domini Home  in Claremont (17)", "actualname": "Mater Domini Home ", "subregion": "Claremont", "beds": "17"}}, {"type": "Feature", "geometry": {"coordinates": [18.4187029, -34.1340882], "type": "Point"}, "properties": {"name": "The Safehouse in Fishhoek (17)", "actualname": "The Safehouse", "subregion": "Fishhoek", "beds": "17"}}, {"type": "Feature", "geometry": {"coordinates": [18.5017948, -33.96526], "type": "Point"}, "properties": {"name": "Carehaven in Gatesville (17)", "actualname": "Carehaven", "subregion": "Gatesville", "beds": "17"}}, {"type": "Feature", "geometry": {"coordinates": [22.4529878, -33.9881281], "type": "Point"}, "properties": {"name": "Bwp Oteniqua Refuse For Women & Children  in George East (17)", "actualname": "Bwp Oteniqua Refuse For Women & Children ", "subregion": "George East", "beds": "17"}}, {"type": "Feature", "geometry": {"coordinates": [18.5670952, -33.9820184], "type": "Point"}, "properties": {"name": "Dorothy Zihlangu Transitional Home in Gugulethu (17)", "actualname": "Dorothy Zihlangu Transitional Home", "subregion": "Gugulethu", "beds": "17"}}, {"type": "Feature", "geometry": {"coordinates": [18.4780523, -33.9958463], "type": "Point"}, "properties": {"name": "Sisters Incorporated in Kenilworth (17)", "actualname": "Sisters Incorporated", "subregion": "Kenilworth", "beds": "17"}}, {"type": "Feature", "geometry": {"coordinates": [18.6769451, -34.037444], "type": "Point"}, "properties": {"name": "Nonceba Centre Trust in Khayelitsha (17)", "actualname": "Nonceba Centre Trust", "subregion": "Khayelitsha", "beds": "17"}}, {"type": "Feature", "geometry": {"coordinates": [22.0834066, -34.1747356], "type": "Point"}, "properties": {"name": "Creating Effective Families  in Mossel Bay (17)", "actualname": "Creating Effective Families ", "subregion": "Mossel Bay", "beds": "17"}}, {"type": "Feature", "geometry": {"coordinates": [18.9621091, -33.7342304], "type": "Point"}, "properties": {"name": "Athlone House Of  Hope in Paarl (17)", "actualname": "Athlone House Of  Hope", "subregion": "Paarl", "beds": "17"}}, {"type": "Feature", "geometry": {"coordinates": [18.5808115, -33.9067916], "type": "Point"}, "properties": {"name": "St Mary'S Home Of Hope in Parow (17)", "actualname": "St Mary'S Home Of Hope", "subregion": "Parow", "beds": "17"}}, {"type": "Feature", "geometry": {"coordinates": [18.5581899, -34.034498], "type": "Point"}, "properties": {"name": "Sizakuenza  in Philipi (17)", "actualname": "Sizakuenza ", "subregion": "Philipi", "beds": "17"}}, {"type": "Feature", "geometry": {"coordinates": [18.6027185, -33.9226595], "type": "Point"}, "properties": {"name": "Dusk To Dawn  in Ravensmead (17)", "actualname": "Dusk To Dawn ", "subregion": "Ravensmead", "beds": "17"}}, {"type": "Feature", "geometry": {"coordinates": [18.860152, -33.9321045], "type": "Point"}, "properties": {"name": "L Abrie De Dieu Safe House in Stellenbosch (17)", "actualname": "L Abrie De Dieu Safe House", "subregion": "Stellenbosch", "beds": "17"}}, {"type": "Feature", "geometry": {"coordinates": [17.9946667, -32.9127799], "type": "Point"}, "properties": {"name": "Siyabonga Shelter in Vredenberg (17)", "actualname": "Siyabonga Shelter", "subregion": "Vredenberg", "beds": "17"}}, {"type": "Feature", "geometry": {"coordinates": [18.5440903, -33.9593668], "type": "Point"}, "properties": {"name": "Ihata  in Welcome Estate (17)", "actualname": "Ihata ", "subregion": "Welcome Estate", "beds": "17"}}, {"type": "Feature", "geometry": {"coordinates": [18.4497262, -33.929413], "type": "Point"}, "properties": {"name": "St. Annes Homes  in Woodstock (17)", "actualname": "St. Annes Homes ", "subregion": "Woodstock", "beds": "17"}}, {"type": "Feature", "geometry": {"coordinates": [19.4616074, -33.65389], "type": "Point"}, "properties": {"name": "House Of Hope in Worcester (17)", "actualname": "House Of Hope", "subregion": "Worcester", "beds": "17"}}, {"type": "Feature", "geometry": {"coordinates": [27.1323579, -32.2973193], "type": "Point"}, "properties": {"name": "Ikhwezi Women Support Centre in Cathcart (20)", "actualname": "Ikhwezi Women Support Centre", "subregion": "Cathcart", "beds": "20"}}, {"type": "Feature", "geometry": {"coordinates": [27.9058596, -32.9999033], "type": "Point"}, "properties": {"name": "Victory House  in East London, Southernwood (20)", "actualname": "Victory House ", "subregion": "East London, Southernwood", "beds": "20"}}, {"type": "Feature", "geometry": {"coordinates": [27.9058596, -32.9999033], "type": "Point"}, "properties": {"name": "Masimanyane Shelter  in East London, Southernwood (20)", "actualname": "Masimanyane Shelter ", "subregion": "East London, Southernwood", "beds": "20"}}, {"type": "Feature", "geometry": {"coordinates": [24.9101544, -34.0506714], "type": "Point"}, "properties": {"name": "On Eagles Wings Multipurpose Centre in Jeffrey'S Bay (20)", "actualname": "On Eagles Wings Multipurpose Centre", "subregion": "Jeffrey'S Bay", "beds": "20"}}, {"type": "Feature", "geometry": {"coordinates": [27.4203974, -32.8938109], "type": "Point"}, "properties": {"name": "Khanyisa Victim Empowerment Centre in King Williams Town (20)", "actualname": "Khanyisa Victim Empowerment Centre", "subregion": "King Williams Town", "beds": "20"}}, {"type": "Feature", "geometry": {"coordinates": [25.6022423, -33.9608369], "type": "Point"}, "properties": {"name": "Rape Crisis Centre (Shelter Under Construction) in Port Elizabeth (20)", "actualname": "Rape Crisis Centre (Shelter Under Construction)", "subregion": "Port Elizabeth", "beds": "20"}}, {"type": "Feature", "geometry": {"coordinates": [25.4141193, -33.768717], "type": "Point"}, "properties": {"name": "Kwanobuhle Outreach Centre (Government-Run Shelter) in Uitenhage (20)", "actualname": "Kwanobuhle Outreach Centre (Government-Run Shelter)", "subregion": "Uitenhage", "beds": "20"}}, {"type": "Feature", "geometry": {"coordinates": [28.3111262, -28.2423025], "type": "Point"}, "properties": {"name": "Child & Family Welfare in Bethlehem (23)", "actualname": "Child & Family Welfare", "subregion": "Bethlehem", "beds": "23"}}, {"type": "Feature", "geometry": {"coordinates": [27.4908738, -26.9110891], "type": "Point"}, "properties": {"name": "Tumahole Victim Support Centre  in Parys (23)", "actualname": "Tumahole Victim Support Centre ", "subregion": "Parys", "beds": "23"}}, {"type": "Feature", "geometry": {"coordinates": [28.824722, -28.5530273], "type": "Point"}, "properties": {"name": "Thusanang Advice Centre Shelter  in Qwaqwa (23)", "actualname": "Thusanang Advice Centre Shelter ", "subregion": "Qwaqwa", "beds": "23"}}, {"type": "Feature", "geometry": {"coordinates": [26.7732162, -28.0045655], "type": "Point"}, "properties": {"name": "Goldfields Family Advice Organisation in Welkom (23)", "actualname": "Goldfields Family Advice Organisation", "subregion": "Welkom", "beds": "23"}}, {"type": "Feature", "geometry": {"coordinates": [28.0976369, -26.1033012], "type": "Point"}, "properties": {"name": "Bombani Shelter in Alexandra (24)", "actualname": "Bombani Shelter", "subregion": "Alexandra", "beds": "24"}}, {"type": "Feature", "geometry": {"coordinates": [28.3695699, -26.1510854], "type": "Point"}, "properties": {"name": "Antioch Place Of Shelter in Benoni (24)", "actualname": "Antioch Place Of Shelter", "subregion": "Benoni", "beds": "24"}}, {"type": "Feature", "geometry": {"coordinates": [28.1628568, -26.2185888], "type": "Point"}, "properties": {"name": "Ctc Bethesda House in Ekurhuleni (24)", "actualname": "Ctc Bethesda House", "subregion": "Ekurhuleni", "beds": "24"}}, {"type": "Feature", "geometry": {"coordinates": [28.1239717, -26.3223942], "type": "Point"}, "properties": {"name": "Amcare Hannah House in Alberton (24)", "actualname": "Amcare Hannah House", "subregion": "Alberton", "beds": "24"}}, {"type": "Feature", "geometry": {"coordinates": [28.1628568, -26.2185888], "type": "Point"}, "properties": {"name": "Powa (East Rand) in Ekurhuleni (24)", "actualname": "Powa (East Rand)", "subregion": "Ekurhuleni", "beds": "24"}}, {"type": "Feature", "geometry": {"coordinates": [28.1628568, -26.2185888], "type": "Point"}, "properties": {"name": "Mercy Haven in Ekurhuleni (24)", "actualname": "Mercy Haven", "subregion": "Ekurhuleni", "beds": "24"}}, {"type": "Feature", "geometry": {"coordinates": [28.1628568, -26.2185888], "type": "Point"}, "properties": {"name": "House Of Hope (T/A Leratong Crisis Centre) in Ekurhuleni (24)", "actualname": "House Of Hope (T/A Leratong Crisis Centre)", "subregion": "Ekurhuleni", "beds": "24"}}, {"type": "Feature", "geometry": {"coordinates": [28.4221519, -26.1452452], "type": "Point"}, "properties": {"name": "Theodora Ndaba Victim Support Centre in Daveyton (24)", "actualname": "Theodora Ndaba Victim Support Centre", "subregion": "Daveyton", "beds": "24"}}, {"type": "Feature", "geometry": {"coordinates": [27.9717606, -26.1704415], "type": "Point"}, "properties": {"name": "Usindiso in Johannesburg Metro (24)", "actualname": "Usindiso", "subregion": "Johannesburg Metro", "beds": "24"}}, {"type": "Feature", "geometry": {"coordinates": [27.9717606, -26.1704415], "type": "Point"}, "properties": {"name": "Ikhaya Lethemba (Government-Run Shelter) in Johannesburg Metro (24)", "actualname": "Ikhaya Lethemba (Government-Run Shelter)", "subregion": "Johannesburg Metro", "beds": "24"}}, {"type": "Feature", "geometry": {"coordinates": [27.9717606, -26.1704415], "type": "Point"}, "properties": {"name": "Eldorado Park Women'S Forum in Johannesburg Metro (24)", "actualname": "Eldorado Park Women'S Forum", "subregion": "Johannesburg Metro", "beds": "24"}}, {"type": "Feature", "geometry": {"coordinates": [27.9717606, -26.1704415], "type": "Point"}, "properties": {"name": "Home Of Hope in Johannesburg Metro (24)", "actualname": "Home Of Hope", "subregion": "Johannesburg Metro", "beds": "24"}}, {"type": "Feature", "geometry": {"coordinates": [27.9717606, -26.1704415], "type": "Point"}, "properties": {"name": "Little Saints Bethany in Johannesburg Metro (24)", "actualname": "Little Saints Bethany", "subregion": "Johannesburg Metro", "beds": "24"}}, {"type": "Feature", "geometry": {"coordinates": [27.8309784, -26.3140736], "type": "Point"}, "properties": {"name": "Nisaa Institute For Women'S Development in Lenasia Extension 1 (24)", "actualname": "Nisaa Institute For Women'S Development", "subregion": "Lenasia Extension 1", "beds": "24"}}, {"type": "Feature", "geometry": {"coordinates": [28.2499001, -26.1789171], "type": "Point"}, "properties": {"name": "Beth Shan Shelter in North Rand (24)", "actualname": "Beth Shan Shelter", "subregion": "North Rand", "beds": "24"}}, {"type": "Feature", "geometry": {"coordinates": [28.7666681, -25.7732834], "type": "Point"}, "properties": {"name": "Mercy House in Sizanani Village (24)", "actualname": "Mercy House", "subregion": "Sizanani Village", "beds": "24"}}, {"type": "Feature", "geometry": {"coordinates": [28.2499001, -26.1789171], "type": "Point"}, "properties": {"name": "Mali Martin in North Rand (24)", "actualname": "Mali Martin", "subregion": "North Rand", "beds": "24"}}, {"type": "Feature", "geometry": {"coordinates": [28.2499001, -26.1789171], "type": "Point"}, "properties": {"name": "The Potter House in North Rand (24)", "actualname": "The Potter House", "subregion": "North Rand", "beds": "24"}}, {"type": "Feature", "geometry": {"coordinates": [28.1561533, -25.7496565], "type": "Point"}, "properties": {"name": "Youth For Survival in Pretoria West (24)", "actualname": "Youth For Survival", "subregion": "Pretoria West", "beds": "24"}}, {"type": "Feature", "geometry": {"coordinates": [28.0830047, -25.7730891], "type": "Point"}, "properties": {"name": "Re-Bafenyi Victim Empowerment in Pretoria, Atteridgeville (24)", "actualname": "Re-Bafenyi Victim Empowerment", "subregion": "Pretoria, Atteridgeville", "beds": "24"}}, {"type": "Feature", "geometry": {"coordinates": [28.2058768, -26.6833196], "type": "Point"}, "properties": {"name": "Bella Maria in Sedibeng (24)", "actualname": "Bella Maria", "subregion": "Sedibeng", "beds": "24"}}, {"type": "Feature", "geometry": {"coordinates": [27.4556388, -26.3213939], "type": "Point"}, "properties": {"name": "Are Areng in West Rand (24)", "actualname": "Are Areng", "subregion": "West Rand", "beds": "24"}}, {"type": "Feature", "geometry": {"coordinates": [27.4556388, -26.3213939], "type": "Point"}, "properties": {"name": "Polokego in West Rand (24)", "actualname": "Polokego", "subregion": "West Rand", "beds": "24"}}, {"type": "Feature", "geometry": {"coordinates": [27.3851496, -26.4011578], "type": "Point"}, "properties": {"name": "Savf Deurgangshuis in Carltonville (24)", "actualname": "Savf Deurgangshuis", "subregion": "Carltonville", "beds": "24"}}, {"type": "Feature", "geometry": {"coordinates": [27.9161125, -26.1794173], "type": "Point"}, "properties": {"name": "Powa (West Rand) in Florida (24)", "actualname": "Powa (West Rand)", "subregion": "Florida", "beds": "24"}}, {"type": "Feature", "geometry": {"coordinates": [27.4556388, -26.3213939], "type": "Point"}, "properties": {"name": "Wawa Toekomsrus in West Rand (24)", "actualname": "Wawa Toekomsrus", "subregion": "West Rand", "beds": "24"}}, {"type": "Feature", "geometry": {"coordinates": [30.2343141, -28.1649792], "type": "Point"}, "properties": {"name": "Dundee Crisis Centre in Dundee (31)", "actualname": "Dundee Crisis Centre", "subregion": "Dundee", "beds": "31"}}, {"type": "Feature", "geometry": {"coordinates": [31.0218404, -29.8586804], "type": "Point"}, "properties": {"name": "Kerr House in Durban (31)", "actualname": "Kerr House", "subregion": "Durban", "beds": "31"}}, {"type": "Feature", "geometry": {"coordinates": [31.0218404, -29.8586804], "type": "Point"}, "properties": {"name": "Kenilworth Respite Centre in Durban (31)", "actualname": "Kenilworth Respite Centre", "subregion": "Durban", "beds": "31"}}, {"type": "Feature", "geometry": {"coordinates": [30.3794118, -29.6006068], "type": "Point"}, "properties": {"name": "Abrina Esther House in Pietermaritzburg (31)", "actualname": "Abrina Esther House", "subregion": "Pietermaritzburg", "beds": "31"}}, {"type": "Feature", "geometry": {"coordinates": [30.3794118, -29.6006068], "type": "Point"}, "properties": {"name": "The Haven in Pietermaritzburg (31)", "actualname": "The Haven", "subregion": "Pietermaritzburg", "beds": "31"}}, {"type": "Feature", "geometry": {"coordinates": [30.8384093, -29.8345022], "type": "Point"}, "properties": {"name": "Open Door Crisis Centre in Pinetown (31)", "actualname": "Open Door Crisis Centre", "subregion": "Pinetown", "beds": "31"}}, {"type": "Feature", "geometry": {"coordinates": [30.8384093, -29.8345022], "type": "Point"}, "properties": {"name": "Ethembeni Crisis Centre in Pinetown (31)", "actualname": "Ethembeni Crisis Centre", "subregion": "Pinetown", "beds": "31"}}, {"type": "Feature", "geometry": {"coordinates": [31.3798921, -29.133038], "type": "Point"}, "properties": {"name": "The House Of Hope And Recovery in Sundumbili (31)", "actualname": "The House Of Hope And Recovery", "subregion": "Sundumbili", "beds": "31"}}, {"type": "Feature", "geometry": {"coordinates": [29.4486263, -23.8961708], "type": "Point"}, "properties": {"name": "Ekuphumleni Restoration Home Thyrest in Polokwane (50)", "actualname": "Ekuphumleni Restoration Home Thyrest", "subregion": "Polokwane", "beds": "50"}}, {"type": "Feature", "geometry": {"coordinates": [29.4486263, -23.8961708], "type": "Point"}, "properties": {"name": "Khuseleka One Stop Centre (Government-Run Shelter) in Polokwane (50)", "actualname": "Khuseleka One Stop Centre (Government-Run Shelter)", "subregion": "Polokwane", "beds": "50"}}, {"type": "Feature", "geometry": {"coordinates": [30.5394232, -25.9573638], "type": "Point"}, "properties": {"name": "Badplass Shelter in Badplass (4)", "actualname": "Badplass Shelter", "subregion": "Badplass", "beds": "4"}}, {"type": "Feature", "geometry": {"coordinates": [28.7128468, -25.4317963], "type": "Point"}, "properties": {"name": "Leseding Women'S Shelter (Government-Run Shelter) in Kwamhlanga (4)", "actualname": "Leseding Women'S Shelter (Government-Run Shelter)", "subregion": "Kwamhlanga", "beds": "4"}}, {"type": "Feature", "geometry": {"coordinates": [31.283333, -25.633333], "type": "Point"}, "properties": {"name": "Louiville Shelter (Government-Run Shelter) in Low'S Creek (4)", "actualname": "Louiville Shelter (Government-Run Shelter)", "subregion": "Low'S Creek", "beds": "4"}}, {"type": "Feature", "geometry": {"coordinates": [31.2382884, -24.9865602], "type": "Point"}, "properties": {"name": "Calcultta Shelter in Malubane Mkhuhlu (4)", "actualname": "Calcultta Shelter", "subregion": "Malubane Mkhuhlu", "beds": "4"}}, {"type": "Feature", "geometry": {"coordinates": [29.4639354, -25.769902], "type": "Point"}, "properties": {"name": "Victim Support Centre (Shelter Closed But Psychosocial Services Still On Offer) in Middleburg (4)", "actualname": "Victim Support Centre (Shelter Closed But Psychosocial Services Still On Offer)", "subregion": "Middleburg", "beds": "4"}}, {"type": "Feature", "geometry": {"coordinates": [28.5344444, -25.1027778], "type": "Point"}, "properties": {"name": "Tirisano Victim Empowerment Centre in Mmametlhake (4)", "actualname": "Tirisano Victim Empowerment Centre", "subregion": "Mmametlhake", "beds": "4"}}, {"type": "Feature", "geometry": {"coordinates": [31.162448, -25.4260949], "type": "Point"}, "properties": {"name": "Grace Shelter in Msogwaba (4)", "actualname": "Grace Shelter", "subregion": "Msogwaba", "beds": "4"}}, {"type": "Feature", "geometry": {"coordinates": [30.9694163, -25.4752984], "type": "Point"}, "properties": {"name": "Grip Shelter in Nelspruit (4)", "actualname": "Grip Shelter", "subregion": "Nelspruit", "beds": "4"}}, {"type": "Feature", "geometry": {"coordinates": [31.2097022, -24.7241579], "type": "Point"}, "properties": {"name": "Mhala Shelter in Thulamahashe (4)", "actualname": "Mhala Shelter", "subregion": "Thulamahashe", "beds": "4"}}, {"type": "Feature", "geometry": {"coordinates": [27.5583897, -25.7538196], "type": "Point"}, "properties": {"name": "Grace Help Shelter in Mooi Nooi (118)", "actualname": "Grace Help Shelter", "subregion": "Mooi Nooi", "beds": "118"}}, {"type": "Feature", "geometry": {"coordinates": [24.0131202, -30.6766303], "type": "Point"}, "properties": {"name": "Ethembeni Community  And Trauma Centre in De Aar (6)", "actualname": "Ethembeni Community  And Trauma Centre", "subregion": "De Aar", "beds": "6"}}, {"type": "Feature", "geometry": {"coordinates": [21.2368084, -28.3952677], "type": "Point"}, "properties": {"name": "Bopanang One Stop Centre (Government-Run Shelter) in Upington (6)", "actualname": "Bopanang One Stop Centre (Government-Run Shelter)", "subregion": "Upington", "beds": "6"}}, {"type": "Feature", "geometry": {"coordinates": [24.7499112, -28.7282384], "type": "Point"}, "properties": {"name": "Kimberely Shelter (Government-Run Shelter) in Kimberley (6)", "actualname": "Kimberely Shelter (Government-Run Shelter)", "subregion": "Kimberley", "beds": "6"}}, {"type": "Feature", "geometry": {"coordinates": [24.7499112, -28.7282384], "type": "Point"}, "properties": {"name": "Tamar Shelter (Currenly Under Renovation) in Kimberley (6)", "actualname": "Tamar Shelter (Currenly Under Renovation)", "subregion": "Kimberley", "beds": "6"}}, {"type": "Feature", "geometry": {"coordinates": [18.5017948, -33.96526], "type": "Point"}, "properties": {"name": "Saartjie Baartman Womens Centre in Athlone (17)", "actualname": "Saartjie Baartman Womens Centre", "subregion": "Athlone", "beds": "17"}}, {"type": "Feature", "geometry": {"coordinates": [18.4869555, -33.5062662], "type": "Point"}, "properties": {"name": "United Sanctuary Against Abuse in Atlantis (17)", "actualname": "United Sanctuary Against Abuse", "subregion": "Atlantis", "beds": "17"}}, {"type": "Feature", "geometry": {"coordinates": [18.4721169, -33.9860035], "type": "Point"}, "properties": {"name": "Mater Domini Home  in Claremont (17)", "actualname": "Mater Domini Home ", "subregion": "Claremont", "beds": "17"}}, {"type": "Feature", "geometry": {"coordinates": [18.4187029, -34.1340882], "type": "Point"}, "properties": {"name": "The Safehouse in Fishhoek (17)", "actualname": "The Safehouse", "subregion": "Fishhoek", "beds": "17"}}, {"type": "Feature", "geometry": {"coordinates": [18.5017948, -33.96526], "type": "Point"}, "properties": {"name": "Carehaven in Gatesville (17)", "actualname": "Carehaven", "subregion": "Gatesville", "beds": "17"}}, {"type": "Feature", "geometry": {"coordinates": [22.4529878, -33.9881281], "type": "Point"}, "properties": {"name": "Bwp Oteniqua Refuse For Women & Children  in George East (17)", "actualname": "Bwp Oteniqua Refuse For Women & Children ", "subregion": "George East", "beds": "17"}}, {"type": "Feature", "geometry": {"coordinates": [18.5670952, -33.9820184], "type": "Point"}, "properties": {"name": "Dorothy Zihlangu Transitional Home in Gugulethu (17)", "actualname": "Dorothy Zihlangu Transitional Home", "subregion": "Gugulethu", "beds": "17"}}, {"type": "Feature", "geometry": {"coordinates": [18.4780523, -33.9958463], "type": "Point"}, "properties": {"name": "Sisters Incorporated in Kenilworth (17)", "actualname": "Sisters Incorporated", "subregion": "Kenilworth", "beds": "17"}}, {"type": "Feature", "geometry": {"coordinates": [18.6769451, -34.037444], "type": "Point"}, "properties": {"name": "Nonceba Centre Trust in Khayelitsha (17)", "actualname": "Nonceba Centre Trust", "subregion": "Khayelitsha", "beds": "17"}}, {"type": "Feature", "geometry": {"coordinates": [22.0834066, -34.1747356], "type": "Point"}, "properties": {"name": "Creating Effective Families  in Mossel Bay (17)", "actualname": "Creating Effective Families ", "subregion": "Mossel Bay", "beds": "17"}}, {"type": "Feature", "geometry": {"coordinates": [18.9621091, -33.7342304], "type": "Point"}, "properties": {"name": "Athlone House Of  Hope in Paarl (17)", "actualname": "Athlone House Of  Hope", "subregion": "Paarl", "beds": "17"}}, {"type": "Feature", "geometry": {"coordinates": [18.5808115, -33.9067916], "type": "Point"}, "properties": {"name": "St Mary'S Home Of Hope in Parow (17)", "actualname": "St Mary'S Home Of Hope", "subregion": "Parow", "beds": "17"}}, {"type": "Feature", "geometry": {"coordinates": [18.5581899, -34.034498], "type": "Point"}, "properties": {"name": "Sizakuenza  in Philipi (17)", "actualname": "Sizakuenza ", "subregion": "Philipi", "beds": "17"}}, {"type": "Feature", "geometry": {"coordinates": [18.6027185, -33.9226595], "type": "Point"}, "properties": {"name": "Dusk To Dawn  in Ravensmead (17)", "actualname": "Dusk To Dawn ", "subregion": "Ravensmead", "beds": "17"}}, {"type": "Feature", "geometry": {"coordinates": [18.860152, -33.9321045], "type": "Point"}, "properties": {"name": "L Abrie De Dieu Safe House in Stellenbosch (17)", "actualname": "L Abrie De Dieu Safe House", "subregion": "Stellenbosch", "beds": "17"}}, {"type": "Feature", "geometry": {"coordinates": [17.9946667, -32.9127799], "type": "Point"}, "properties": {"name": "Siyabonga Shelter in Vredenberg (17)", "actualname": "Siyabonga Shelter", "subregion": "Vredenberg", "beds": "17"}}, {"type": "Feature", "geometry": {"coordinates": [18.5440903, -33.9593668], "type": "Point"}, "properties": {"name": "Ihata  in Welcome Estate (17)", "actualname": "Ihata ", "subregion": "Welcome Estate", "beds": "17"}}, {"type": "Feature", "geometry": {"coordinates": [18.4497262, -33.929413], "type": "Point"}, "properties": {"name": "St. Annes Homes  in Woodstock (17)", "actualname": "St. Annes Homes ", "subregion": "Woodstock", "beds": "17"}}, {"type": "Feature", "geometry": {"coordinates": [19.4616074, -33.65389], "type": "Point"}, "properties": {"name": "House Of Hope in Worcester (17)", "actualname": "House Of Hope", "subregion": "Worcester", "beds": "17"}}, {"type": "Feature", "geometry": {"coordinates": [27.1323579, -32.2973193], "type": "Point"}, "properties": {"name": "Ikhwezi Women Support Centre in Cathcart (20)", "actualname": "Ikhwezi Women Support Centre", "subregion": "Cathcart", "beds": "20"}}, {"type": "Feature", "geometry": {"coordinates": [27.9058596, -32.9999033], "type": "Point"}, "properties": {"name": "Victory House  in East London, Southernwood (20)", "actualname": "Victory House ", "subregion": "East London, Southernwood", "beds": "20"}}, {"type": "Feature", "geometry": {"coordinates": [27.9058596, -32.9999033], "type": "Point"}, "properties": {"name": "Masimanyane Shelter  in East London, Southernwood (20)", "actualname": "Masimanyane Shelter ", "subregion": "East London, Southernwood", "beds": "20"}}, {"type": "Feature", "geometry": {"coordinates": [24.9101544, -34.0506714], "type": "Point"}, "properties": {"name": "On Eagles Wings Multipurpose Centre in Jeffrey'S Bay (20)", "actualname": "On Eagles Wings Multipurpose Centre", "subregion": "Jeffrey'S Bay", "beds": "20"}}, {"type": "Feature", "geometry": {"coordinates": [27.4203974, -32.8938109], "type": "Point"}, "properties": {"name": "Khanyisa Victim Empowerment Centre in King Williams Town (20)", "actualname": "Khanyisa Victim Empowerment Centre", "subregion": "King Williams Town", "beds": "20"}}, {"type": "Feature", "geometry": {"coordinates": [25.6022423, -33.9608369], "type": "Point"}, "properties": {"name": "Rape Crisis Centre (Shelter Under Construction) in Port Elizabeth (20)", "actualname": "Rape Crisis Centre (Shelter Under Construction)", "subregion": "Port Elizabeth", "beds": "20"}}, {"type": "Feature", "geometry": {"coordinates": [25.4141193, -33.768717], "type": "Point"}, "properties": {"name": "Kwanobuhle Outreach Centre (Government-Run Shelter) in Uitenhage (20)", "actualname": "Kwanobuhle Outreach Centre (Government-Run Shelter)", "subregion": "Uitenhage", "beds": "20"}}, {"type": "Feature", "geometry": {"coordinates": [28.3111262, -28.2423025], "type": "Point"}, "properties": {"name": "Child & Family Welfare in Bethlehem (23)", "actualname": "Child & Family Welfare", "subregion": "Bethlehem", "beds": "23"}}, {"type": "Feature", "geometry": {"coordinates": [27.4908738, -26.9110891], "type": "Point"}, "properties": {"name": "Tumahole Victim Support Centre  in Parys (23)", "actualname": "Tumahole Victim Support Centre ", "subregion": "Parys", "beds": "23"}}, {"type": "Feature", "geometry": {"coordinates": [28.824722, -28.5530273], "type": "Point"}, "properties": {"name": "Thusanang Advice Centre Shelter  in Qwaqwa (23)", "actualname": "Thusanang Advice Centre Shelter ", "subregion": "Qwaqwa", "beds": "23"}}, {"type": "Feature", "geometry": {"coordinates": [26.7732162, -28.0045655], "type": "Point"}, "properties": {"name": "Goldfields Family Advice Organisation in Welkom (23)", "actualname": "Goldfields Family Advice Organisation", "subregion": "Welkom", "beds": "23"}}, {"type": "Feature", "geometry": {"coordinates": [28.0976369, -26.1033012], "type": "Point"}, "properties": {"name": "Bombani Shelter in Alexandra (24)", "actualname": "Bombani Shelter", "subregion": "Alexandra", "beds": "24"}}, {"type": "Feature", "geometry": {"coordinates": [28.3695699, -26.1510854], "type": "Point"}, "properties": {"name": "Antioch Place Of Shelter in Benoni (24)", "actualname": "Antioch Place Of Shelter", "subregion": "Benoni", "beds": "24"}}, {"type": "Feature", "geometry": {"coordinates": [28.1628568, -26.2185888], "type": "Point"}, "properties": {"name": "Ctc Bethesda House in Ekurhuleni (24)", "actualname": "Ctc Bethesda House", "subregion": "Ekurhuleni", "beds": "24"}}, {"type": "Feature", "geometry": {"coordinates": [28.1239717, -26.3223942], "type": "Point"}, "properties": {"name": "Amcare Hannah House in Alberton (24)", "actualname": "Amcare Hannah House", "subregion": "Alberton", "beds": "24"}}, {"type": "Feature", "geometry": {"coordinates": [28.1628568, -26.2185888], "type": "Point"}, "properties": {"name": "Powa (East Rand) in Ekurhuleni (24)", "actualname": "Powa (East Rand)", "subregion": "Ekurhuleni", "beds": "24"}}, {"type": "Feature", "geometry": {"coordinates": [28.1628568, -26.2185888], "type": "Point"}, "properties": {"name": "Mercy Haven in Ekurhuleni (24)", "actualname": "Mercy Haven", "subregion": "Ekurhuleni", "beds": "24"}}, {"type": "Feature", "geometry": {"coordinates": [28.1628568, -26.2185888], "type": "Point"}, "properties": {"name": "House Of Hope (T/A Leratong Crisis Centre) in Ekurhuleni (24)", "actualname": "House Of Hope (T/A Leratong Crisis Centre)", "subregion": "Ekurhuleni", "beds": "24"}}, {"type": "Feature", "geometry": {"coordinates": [28.4221519, -26.1452452], "type": "Point"}, "properties": {"name": "Theodora Ndaba Victim Support Centre in Daveyton (24)", "actualname": "Theodora Ndaba Victim Support Centre", "subregion": "Daveyton", "beds": "24"}}, {"type": "Feature", "geometry": {"coordinates": [27.9717606, -26.1704415], "type": "Point"}, "properties": {"name": "Usindiso in Johannesburg Metro (24)", "actualname": "Usindiso", "subregion": "Johannesburg Metro", "beds": "24"}}, {"type": "Feature", "geometry": {"coordinates": [27.9717606, -26.1704415], "type": "Point"}, "properties": {"name": "Ikhaya Lethemba (Government-Run Shelter) in Johannesburg Metro (24)", "actualname": "Ikhaya Lethemba (Government-Run Shelter)", "subregion": "Johannesburg Metro", "beds": "24"}}, {"type": "Feature", "geometry": {"coordinates": [27.9717606, -26.1704415], "type": "Point"}, "properties": {"name": "Eldorado Park Women'S Forum in Johannesburg Metro (24)", "actualname": "Eldorado Park Women'S Forum", "subregion": "Johannesburg Metro", "beds": "24"}}, {"type": "Feature", "geometry": {"coordinates": [27.9717606, -26.1704415], "type": "Point"}, "properties": {"name": "Home Of Hope in Johannesburg Metro (24)", "actualname": "Home Of Hope", "subregion": "Johannesburg Metro", "beds": "24"}}, {"type": "Feature", "geometry": {"coordinates": [27.9717606, -26.1704415], "type": "Point"}, "properties": {"name": "Little Saints Bethany in Johannesburg Metro (24)", "actualname": "Little Saints Bethany", "subregion": "Johannesburg Metro", "beds": "24"}}, {"type": "Feature", "geometry": {"coordinates": [27.8309784, -26.3140736], "type": "Point"}, "properties": {"name": "Nisaa Institute For Women'S Development in Lenasia Extension 1 (24)", "actualname": "Nisaa Institute For Women'S Development", "subregion": "Lenasia Extension 1", "beds": "24"}}, {"type": "Feature", "geometry": {"coordinates": [28.2499001, -26.1789171], "type": "Point"}, "properties": {"name": "Beth Shan Shelter in North Rand (24)", "actualname": "Beth Shan Shelter", "subregion": "North Rand", "beds": "24"}}, {"type": "Feature", "geometry": {"coordinates": [28.7666681, -25.7732834], "type": "Point"}, "properties": {"name": "Mercy House in Sizanani Village (24)", "actualname": "Mercy House", "subregion": "Sizanani Village", "beds": "24"}}, {"type": "Feature", "geometry": {"coordinates": [28.2499001, -26.1789171], "type": "Point"}, "properties": {"name": "Mali Martin in North Rand (24)", "actualname": "Mali Martin", "subregion": "North Rand", "beds": "24"}}, {"type": "Feature", "geometry": {"coordinates": [28.2499001, -26.1789171], "type": "Point"}, "properties": {"name": "The Potter House in North Rand (24)", "actualname": "The Potter House", "subregion": "North Rand", "beds": "24"}}, {"type": "Feature", "geometry": {"coordinates": [28.1561533, -25.7496565], "type": "Point"}, "properties": {"name": "Youth For Survival in Pretoria West (24)", "actualname": "Youth For Survival", "subregion": "Pretoria West", "beds": "24"}}, {"type": "Feature", "geometry": {"coordinates": [28.0830047, -25.7730891], "type": "Point"}, "properties": {"name": "Re-Bafenyi Victim Empowerment in Pretoria, Atteridgeville (24)", "actualname": "Re-Bafenyi Victim Empowerment", "subregion": "Pretoria, Atteridgeville", "beds": "24"}}, {"type": "Feature", "geometry": {"coordinates": [28.2058768, -26.6833196], "type": "Point"}, "properties": {"name": "Bella Maria in Sedibeng (24)", "actualname": "Bella Maria", "subregion": "Sedibeng", "beds": "24"}}, {"type": "Feature", "geometry": {"coordinates": [27.4556388, -26.3213939], "type": "Point"}, "properties": {"name": "Are Areng in West Rand (24)", "actualname": "Are Areng", "subregion": "West Rand", "beds": "24"}}, {"type": "Feature", "geometry": {"coordinates": [27.4556388, -26.3213939], "type": "Point"}, "properties": {"name": "Polokego in West Rand (24)", "actualname": "Polokego", "subregion": "West Rand", "beds": "24"}}, {"type": "Feature", "geometry": {"coordinates": [27.3851496, -26.4011578], "type": "Point"}, "properties": {"name": "Savf Deurgangshuis in Carltonville (24)", "actualname": "Savf Deurgangshuis", "subregion": "Carltonville", "beds": "24"}}, {"type": "Feature", "geometry": {"coordinates": [27.9161125, -26.1794173], "type": "Point"}, "properties": {"name": "Powa (West Rand) in Florida (24)", "actualname": "Powa (West Rand)", "subregion": "Florida", "beds": "24"}}, {"type": "Feature", "geometry": {"coordinates": [27.4556388, -26.3213939], "type": "Point"}, "properties": {"name": "Wawa Toekomsrus in West Rand (24)", "actualname": "Wawa Toekomsrus", "subregion": "West Rand", "beds": "24"}}, {"type": "Feature", "geometry": {"coordinates": [30.2343141, -28.1649792], "type": "Point"}, "properties": {"name": "Dundee Crisis Centre in Dundee (31)", "actualname": "Dundee Crisis Centre", "subregion": "Dundee", "beds": "31"}}, {"type": "Feature", "geometry": {"coordinates": [31.0218404, -29.8586804], "type": "Point"}, "properties": {"name": "Kerr House in Durban (31)", "actualname": "Kerr House", "subregion": "Durban", "beds": "31"}}, {"type": "Feature", "geometry": {"coordinates": [31.0218404, -29.8586804], "type": "Point"}, "properties": {"name": "Kenilworth Respite Centre in Durban (31)", "actualname": "Kenilworth Respite Centre", "subregion": "Durban", "beds": "31"}}, {"type": "Feature", "geometry": {"coordinates": [30.3794118, -29.6006068], "type": "Point"}, "properties": {"name": "Abrina Esther House in Pietermaritzburg (31)", "actualname": "Abrina Esther House", "subregion": "Pietermaritzburg", "beds": "31"}}, {"type": "Feature", "geometry": {"coordinates": [30.3794118, -29.6006068], "type": "Point"}, "properties": {"name": "The Haven in Pietermaritzburg (31)", "actualname": "The Haven", "subregion": "Pietermaritzburg", "beds": "31"}}, {"type": "Feature", "geometry": {"coordinates": [30.8384093, -29.8345022], "type": "Point"}, "properties": {"name": "Open Door Crisis Centre in Pinetown (31)", "actualname": "Open Door Crisis Centre", "subregion": "Pinetown", "beds": "31"}}, {"type": "Feature", "geometry": {"coordinates": [30.8384093, -29.8345022], "type": "Point"}, "properties": {"name": "Ethembeni Crisis Centre in Pinetown (31)", "actualname": "Ethembeni Crisis Centre", "subregion": "Pinetown", "beds": "31"}}, {"type": "Feature", "geometry": {"coordinates": [31.3798921, -29.133038], "type": "Point"}, "properties": {"name": "The House Of Hope And Recovery in Sundumbili (31)", "actualname": "The House Of Hope And Recovery", "subregion": "Sundumbili", "beds": "31"}}, {"type": "Feature", "geometry": {"coordinates": [29.4486263, -23.8961708], "type": "Point"}, "properties": {"name": "Ekuphumleni Restoration Home Thyrest in Polokwane (50)", "actualname": "Ekuphumleni Restoration Home Thyrest", "subregion": "Polokwane", "beds": "50"}}, {"type": "Feature", "geometry": {"coordinates": [29.4486263, -23.8961708], "type": "Point"}, "properties": {"name": "Khuseleka One Stop Centre (Government-Run Shelter) in Polokwane (50)", "actualname": "Khuseleka One Stop Centre (Government-Run Shelter)", "subregion": "Polokwane", "beds": "50"}}, {"type": "Feature", "geometry": {"coordinates": [30.5394232, -25.9573638], "type": "Point"}, "properties": {"name": "Badplass Shelter in Badplass (4)", "actualname": "Badplass Shelter", "subregion": "Badplass", "beds": "4"}}, {"type": "Feature", "geometry": {"coordinates": [28.7128468, -25.4317963], "type": "Point"}, "properties": {"name": "Leseding Women'S Shelter (Government-Run Shelter) in Kwamhlanga (4)", "actualname": "Leseding Women'S Shelter (Government-Run Shelter)", "subregion": "Kwamhlanga", "beds": "4"}}, {"type": "Feature", "geometry": {"coordinates": [31.283333, -25.633333], "type": "Point"}, "properties": {"name": "Louiville Shelter (Government-Run Shelter) in Low'S Creek (4)", "actualname": "Louiville Shelter (Government-Run Shelter)", "subregion": "Low'S Creek", "beds": "4"}}, {"type": "Feature", "geometry": {"coordinates": [31.2382884, -24.9865602], "type": "Point"}, "properties": {"name": "Calcultta Shelter in Malubane Mkhuhlu (4)", "actualname": "Calcultta Shelter", "subregion": "Malubane Mkhuhlu", "beds": "4"}}, {"type": "Feature", "geometry": {"coordinates": [29.4639354, -25.769902], "type": "Point"}, "properties": {"name": "Victim Support Centre (Shelter Closed But Psychosocial Services Still On Offer) in Middleburg (4)", "actualname": "Victim Support Centre (Shelter Closed But Psychosocial Services Still On Offer)", "subregion": "Middleburg", "beds": "4"}}, {"type": "Feature", "geometry": {"coordinates": [28.5344444, -25.1027778], "type": "Point"}, "properties": {"name": "Tirisano Victim Empowerment Centre in Mmametlhake (4)", "actualname": "Tirisano Victim Empowerment Centre", "subregion": "Mmametlhake", "beds": "4"}}, {"type": "Feature", "geometry": {"coordinates": [31.162448, -25.4260949], "type": "Point"}, "properties": {"name": "Grace Shelter in Msogwaba (4)", "actualname": "Grace Shelter", "subregion": "Msogwaba", "beds": "4"}}, {"type": "Feature", "geometry": {"coordinates": [30.9694163, -25.4752984], "type": "Point"}, "properties": {"name": "Grip Shelter in Nelspruit (4)", "actualname": "Grip Shelter", "subregion": "Nelspruit", "beds": "4"}}, {"type": "Feature", "geometry": {"coordinates": [31.2097022, -24.7241579], "type": "Point"}, "properties": {"name": "Mhala Shelter in Thulamahashe (4)", "actualname": "Mhala Shelter", "subregion": "Thulamahashe", "beds": "4"}}, {"type": "Feature", "geometry": {"coordinates": [27.5583897, -25.7538196], "type": "Point"}, "properties": {"name": "Grace Help Shelter in Mooi Nooi (118)", "actualname": "Grace Help Shelter", "subregion": "Mooi Nooi", "beds": "118"}}, {"type": "Feature", "geometry": {"coordinates": [24.0131202, -30.6766303], "type": "Point"}, "properties": {"name": "Ethembeni Community  And Trauma Centre in De Aar (6)", "actualname": "Ethembeni Community  And Trauma Centre", "subregion": "De Aar", "beds": "6"}}, {"type": "Feature", "geometry": {"coordinates": [21.2368084, -28.3952677], "type": "Point"}, "properties": {"name": "Bopanang One Stop Centre (Government-Run Shelter) in Upington (6)", "actualname": "Bopanang One Stop Centre (Government-Run Shelter)", "subregion": "Upington", "beds": "6"}}, {"type": "Feature", "geometry": {"coordinates": [24.7499112, -28.7282384], "type": "Point"}, "properties": {"name": "Kimberely Shelter (Government-Run Shelter) in Kimberley (6)", "actualname": "Kimberely Shelter (Government-Run Shelter)", "subregion": "Kimberley", "beds": "6"}}, {"type": "Feature", "geometry": {"coordinates": [24.7499112, -28.7282384], "type": "Point"}, "properties": {"name": "Tamar Shelter (Currenly Under Renovation) in Kimberley (6)", "actualname": "Tamar Shelter (Currenly Under Renovation)", "subregion": "Kimberley", "beds": "6"}}, {"type": "Feature", "geometry": {"coordinates": [18.5017948, -33.96526], "type": "Point"}, "properties": {"name": "Saartjie Baartman Womens Centre in Athlone (17)", "actualname": "Saartjie Baartman Womens Centre", "subregion": "Athlone", "beds": "17"}}, {"type": "Feature", "geometry": {"coordinates": [18.4869555, -33.5062662], "type": "Point"}, "properties": {"name": "United Sanctuary Against Abuse in Atlantis (17)", "actualname": "United Sanctuary Against Abuse", "subregion": "Atlantis", "beds": "17"}}, {"type": "Feature", "geometry": {"coordinates": [18.4721169, -33.9860035], "type": "Point"}, "properties": {"name": "Mater Domini Home  in Claremont (17)", "actualname": "Mater Domini Home ", "subregion": "Claremont", "beds": "17"}}, {"type": "Feature", "geometry": {"coordinates": [18.4187029, -34.1340882], "type": "Point"}, "properties": {"name": "The Safehouse in Fishhoek (17)", "actualname": "The Safehouse", "subregion": "Fishhoek", "beds": "17"}}, {"type": "Feature", "geometry": {"coordinates": [18.5017948, -33.96526], "type": "Point"}, "properties": {"name": "Carehaven in Gatesville (17)", "actualname": "Carehaven", "subregion": "Gatesville", "beds": "17"}}, {"type": "Feature", "geometry": {"coordinates": [22.4529878, -33.9881281], "type": "Point"}, "properties": {"name": "Bwp Oteniqua Refuse For Women & Children  in George East (17)", "actualname": "Bwp Oteniqua Refuse For Women & Children ", "subregion": "George East", "beds": "17"}}, {"type": "Feature", "geometry": {"coordinates": [18.5670952, -33.9820184], "type": "Point"}, "properties": {"name": "Dorothy Zihlangu Transitional Home in Gugulethu (17)", "actualname": "Dorothy Zihlangu Transitional Home", "subregion": "Gugulethu", "beds": "17"}}, {"type": "Feature", "geometry": {"coordinates": [18.4780523, -33.9958463], "type": "Point"}, "properties": {"name": "Sisters Incorporated in Kenilworth (17)", "actualname": "Sisters Incorporated", "subregion": "Kenilworth", "beds": "17"}}, {"type": "Feature", "geometry": {"coordinates": [18.6769451, -34.037444], "type": "Point"}, "properties": {"name": "Nonceba Centre Trust in Khayelitsha (17)", "actualname": "Nonceba Centre Trust", "subregion": "Khayelitsha", "beds": "17"}}, {"type": "Feature", "geometry": {"coordinates": [22.0834066, -34.1747356], "type": "Point"}, "properties": {"name": "Creating Effective Families  in Mossel Bay (17)", "actualname": "Creating Effective Families ", "subregion": "Mossel Bay", "beds": "17"}}, {"type": "Feature", "geometry": {"coordinates": [18.9621091, -33.7342304], "type": "Point"}, "properties": {"name": "Athlone House Of  Hope in Paarl (17)", "actualname": "Athlone House Of  Hope", "subregion": "Paarl", "beds": "17"}}, {"type": "Feature", "geometry": {"coordinates": [18.5808115, -33.9067916], "type": "Point"}, "properties": {"name": "St Mary'S Home Of Hope in Parow (17)", "actualname": "St Mary'S Home Of Hope", "subregion": "Parow", "beds": "17"}}, {"type": "Feature", "geometry": {"coordinates": [18.5581899, -34.034498], "type": "Point"}, "properties": {"name": "Sizakuenza  in Philipi (17)", "actualname": "Sizakuenza ", "subregion": "Philipi", "beds": "17"}}, {"type": "Feature", "geometry": {"coordinates": [18.6027185, -33.9226595], "type": "Point"}, "properties": {"name": "Dusk To Dawn  in Ravensmead (17)", "actualname": "Dusk To Dawn ", "subregion": "Ravensmead", "beds": "17"}}, {"type": "Feature", "geometry": {"coordinates": [18.860152, -33.9321045], "type": "Point"}, "properties": {"name": "L Abrie De Dieu Safe House in Stellenbosch (17)", "actualname": "L Abrie De Dieu Safe House", "subregion": "Stellenbosch", "beds": "17"}}, {"type": "Feature", "geometry": {"coordinates": [17.9946667, -32.9127799], "type": "Point"}, "properties": {"name": "Siyabonga Shelter in Vredenberg (17)", "actualname": "Siyabonga Shelter", "subregion": "Vredenberg", "beds": "17"}}, {"type": "Feature", "geometry": {"coordinates": [18.5440903, -33.9593668], "type": "Point"}, "properties": {"name": "Ihata  in Welcome Estate (17)", "actualname": "Ihata ", "subregion": "Welcome Estate", "beds": "17"}}, {"type": "Feature", "geometry": {"coordinates": [18.4497262, -33.929413], "type": "Point"}, "properties": {"name": "St. Annes Homes  in Woodstock (17)", "actualname": "St. Annes Homes ", "subregion": "Woodstock", "beds": "17"}}, {"type": "Feature", "geometry": {"coordinates": [19.4616074, -33.65389], "type": "Point"}, "properties": {"name": "House Of Hope in Worcester (17)", "actualname": "House Of Hope", "subregion": "Worcester", "beds": "17"}}, {"type": "Feature", "geometry": {"coordinates": [27.1323579, -32.2973193], "type": "Point"}, "properties": {"name": "Ikhwezi Women Support Centre in Cathcart (20)", "actualname": "Ikhwezi Women Support Centre", "subregion": "Cathcart", "beds": "20"}}, {"type": "Feature", "geometry": {"coordinates": [27.9058596, -32.9999033], "type": "Point"}, "properties": {"name": "Victory House  in East London, Southernwood (20)", "actualname": "Victory House ", "subregion": "East London, Southernwood", "beds": "20"}}, {"type": "Feature", "geometry": {"coordinates": [27.9058596, -32.9999033], "type": "Point"}, "properties": {"name": "Masimanyane Shelter  in East London, Southernwood (20)", "actualname": "Masimanyane Shelter ", "subregion": "East London, Southernwood", "beds": "20"}}, {"type": "Feature", "geometry": {"coordinates": [24.9101544, -34.0506714], "type": "Point"}, "properties": {"name": "On Eagles Wings Multipurpose Centre in Jeffrey'S Bay (20)", "actualname": "On Eagles Wings Multipurpose Centre", "subregion": "Jeffrey'S Bay", "beds": "20"}}, {"type": "Feature", "geometry": {"coordinates": [27.4203974, -32.8938109], "type": "Point"}, "properties": {"name": "Khanyisa Victim Empowerment Centre in King Williams Town (20)", "actualname": "Khanyisa Victim Empowerment Centre", "subregion": "King Williams Town", "beds": "20"}}, {"type": "Feature", "geometry": {"coordinates": [25.6022423, -33.9608369], "type": "Point"}, "properties": {"name": "Rape Crisis Centre (Shelter Under Construction) in Port Elizabeth (20)", "actualname": "Rape Crisis Centre (Shelter Under Construction)", "subregion": "Port Elizabeth", "beds": "20"}}, {"type": "Feature", "geometry": {"coordinates": [25.4141193, -33.768717], "type": "Point"}, "properties": {"name": "Kwanobuhle Outreach Centre (Government-Run Shelter) in Uitenhage (20)", "actualname": "Kwanobuhle Outreach Centre (Government-Run Shelter)", "subregion": "Uitenhage", "beds": "20"}}, {"type": "Feature", "geometry": {"coordinates": [28.3111262, -28.2423025], "type": "Point"}, "properties": {"name": "Child & Family Welfare in Bethlehem (23)", "actualname": "Child & Family Welfare", "subregion": "Bethlehem", "beds": "23"}}, {"type": "Feature", "geometry": {"coordinates": [27.4908738, -26.9110891], "type": "Point"}, "properties": {"name": "Tumahole Victim Support Centre  in Parys (23)", "actualname": "Tumahole Victim Support Centre ", "subregion": "Parys", "beds": "23"}}, {"type": "Feature", "geometry": {"coordinates": [28.824722, -28.5530273], "type": "Point"}, "properties": {"name": "Thusanang Advice Centre Shelter  in Qwaqwa (23)", "actualname": "Thusanang Advice Centre Shelter ", "subregion": "Qwaqwa", "beds": "23"}}, {"type": "Feature", "geometry": {"coordinates": [26.7732162, -28.0045655], "type": "Point"}, "properties": {"name": "Goldfields Family Advice Organisation in Welkom (23)", "actualname": "Goldfields Family Advice Organisation", "subregion": "Welkom", "beds": "23"}}, {"type": "Feature", "geometry": {"coordinates": [28.0976369, -26.1033012], "type": "Point"}, "properties": {"name": "Bombani Shelter in Alexandra (24)", "actualname": "Bombani Shelter", "subregion": "Alexandra", "beds": "24"}}, {"type": "Feature", "geometry": {"coordinates": [28.3695699, -26.1510854], "type": "Point"}, "properties": {"name": "Antioch Place Of Shelter in Benoni (24)", "actualname": "Antioch Place Of Shelter", "subregion": "Benoni", "beds": "24"}}, {"type": "Feature", "geometry": {"coordinates": [28.1628568, -26.2185888], "type": "Point"}, "properties": {"name": "Ctc Bethesda House in Ekurhuleni (24)", "actualname": "Ctc Bethesda House", "subregion": "Ekurhuleni", "beds": "24"}}, {"type": "Feature", "geometry": {"coordinates": [28.1239717, -26.3223942], "type": "Point"}, "properties": {"name": "Amcare Hannah House in Alberton (24)", "actualname": "Amcare Hannah House", "subregion": "Alberton", "beds": "24"}}, {"type": "Feature", "geometry": {"coordinates": [28.1628568, -26.2185888], "type": "Point"}, "properties": {"name": "Powa (East Rand) in Ekurhuleni (24)", "actualname": "Powa (East Rand)", "subregion": "Ekurhuleni", "beds": "24"}}, {"type": "Feature", "geometry": {"coordinates": [28.1628568, -26.2185888], "type": "Point"}, "properties": {"name": "Mercy Haven in Ekurhuleni (24)", "actualname": "Mercy Haven", "subregion": "Ekurhuleni", "beds": "24"}}, {"type": "Feature", "geometry": {"coordinates": [28.1628568, -26.2185888], "type": "Point"}, "properties": {"name": "House Of Hope (T/A Leratong Crisis Centre) in Ekurhuleni (24)", "actualname": "House Of Hope (T/A Leratong Crisis Centre)", "subregion": "Ekurhuleni", "beds": "24"}}, {"type": "Feature", "geometry": {"coordinates": [28.4221519, -26.1452452], "type": "Point"}, "properties": {"name": "Theodora Ndaba Victim Support Centre in Daveyton (24)", "actualname": "Theodora Ndaba Victim Support Centre", "subregion": "Daveyton", "beds": "24"}}, {"type": "Feature", "geometry": {"coordinates": [27.9717606, -26.1704415], "type": "Point"}, "properties": {"name": "Usindiso in Johannesburg Metro (24)", "actualname": "Usindiso", "subregion": "Johannesburg Metro", "beds": "24"}}, {"type": "Feature", "geometry": {"coordinates": [27.9717606, -26.1704415], "type": "Point"}, "properties": {"name": "Ikhaya Lethemba (Government-Run Shelter) in Johannesburg Metro (24)", "actualname": "Ikhaya Lethemba (Government-Run Shelter)", "subregion": "Johannesburg Metro", "beds": "24"}}, {"type": "Feature", "geometry": {"coordinates": [27.9717606, -26.1704415], "type": "Point"}, "properties": {"name": "Eldorado Park Women'S Forum in Johannesburg Metro (24)", "actualname": "Eldorado Park Women'S Forum", "subregion": "Johannesburg Metro", "beds": "24"}}, {"type": "Feature", "geometry": {"coordinates": [27.9717606, -26.1704415], "type": "Point"}, "properties": {"name": "Home Of Hope in Johannesburg Metro (24)", "actualname": "Home Of Hope", "subregion": "Johannesburg Metro", "beds": "24"}}, {"type": "Feature", "geometry": {"coordinates": [27.9717606, -26.1704415], "type": "Point"}, "properties": {"name": "Little Saints Bethany in Johannesburg Metro (24)", "actualname": "Little Saints Bethany", "subregion": "Johannesburg Metro", "beds": "24"}}, {"type": "Feature", "geometry": {"coordinates": [27.8309784, -26.3140736], "type": "Point"}, "properties": {"name": "Nisaa Institute For Women'S Development in Lenasia Extension 1 (24)", "actualname": "Nisaa Institute For Women'S Development", "subregion": "Lenasia Extension 1", "beds": "24"}}, {"type": "Feature", "geometry": {"coordinates": [28.2499001, -26.1789171], "type": "Point"}, "properties": {"name": "Beth Shan Shelter in North Rand (24)", "actualname": "Beth Shan Shelter", "subregion": "North Rand", "beds": "24"}}, {"type": "Feature", "geometry": {"coordinates": [28.7666681, -25.7732834], "type": "Point"}, "properties": {"name": "Mercy House in Sizanani Village (24)", "actualname": "Mercy House", "subregion": "Sizanani Village", "beds": "24"}}, {"type": "Feature", "geometry": {"coordinates": [28.2499001, -26.1789171], "type": "Point"}, "properties": {"name": "Mali Martin in North Rand (24)", "actualname": "Mali Martin", "subregion": "North Rand", "beds": "24"}}, {"type": "Feature", "geometry": {"coordinates": [28.2499001, -26.1789171], "type": "Point"}, "properties": {"name": "The Potter House in North Rand (24)", "actualname": "The Potter House", "subregion": "North Rand", "beds": "24"}}, {"type": "Feature", "geometry": {"coordinates": [28.1561533, -25.7496565], "type": "Point"}, "properties": {"name": "Youth For Survival in Pretoria West (24)", "actualname": "Youth For Survival", "subregion": "Pretoria West", "beds": "24"}}, {"type": "Feature", "geometry": {"coordinates": [28.0830047, -25.7730891], "type": "Point"}, "properties": {"name": "Re-Bafenyi Victim Empowerment in Pretoria, Atteridgeville (24)", "actualname": "Re-Bafenyi Victim Empowerment", "subregion": "Pretoria, Atteridgeville", "beds": "24"}}, {"type": "Feature", "geometry": {"coordinates": [28.2058768, -26.6833196], "type": "Point"}, "properties": {"name": "Bella Maria in Sedibeng (24)", "actualname": "Bella Maria", "subregion": "Sedibeng", "beds": "24"}}, {"type": "Feature", "geometry": {"coordinates": [27.4556388, -26.3213939], "type": "Point"}, "properties": {"name": "Are Areng in West Rand (24)", "actualname": "Are Areng", "subregion": "West Rand", "beds": "24"}}, {"type": "Feature", "geometry": {"coordinates": [27.4556388, -26.3213939], "type": "Point"}, "properties": {"name": "Polokego in West Rand (24)", "actualname": "Polokego", "subregion": "West Rand", "beds": "24"}}, {"type": "Feature", "geometry": {"coordinates": [27.3851496, -26.4011578], "type": "Point"}, "properties": {"name": "Savf Deurgangshuis in Carltonville (24)", "actualname": "Savf Deurgangshuis", "subregion": "Carltonville", "beds": "24"}}, {"type": "Feature", "geometry": {"coordinates": [27.9161125, -26.1794173], "type": "Point"}, "properties": {"name": "Powa (West Rand) in Florida (24)", "actualname": "Powa (West Rand)", "subregion": "Florida", "beds": "24"}}, {"type": "Feature", "geometry": {"coordinates": [27.4556388, -26.3213939], "type": "Point"}, "properties": {"name": "Wawa Toekomsrus in West Rand (24)", "actualname": "Wawa Toekomsrus", "subregion": "West Rand", "beds": "24"}}, {"type": "Feature", "geometry": {"coordinates": [30.2343141, -28.1649792], "type": "Point"}, "properties": {"name": "Dundee Crisis Centre in Dundee (31)", "actualname": "Dundee Crisis Centre", "subregion": "Dundee", "beds": "31"}}, {"type": "Feature", "geometry": {"coordinates": [31.0218404, -29.8586804], "type": "Point"}, "properties": {"name": "Kerr House in Durban (31)", "actualname": "Kerr House", "subregion": "Durban", "beds": "31"}}, {"type": "Feature", "geometry": {"coordinates": [31.0218404, -29.8586804], "type": "Point"}, "properties": {"name": "Kenilworth Respite Centre in Durban (31)", "actualname": "Kenilworth Respite Centre", "subregion": "Durban", "beds": "31"}}, {"type": "Feature", "geometry": {"coordinates": [30.3794118, -29.6006068], "type": "Point"}, "properties": {"name": "Abrina Esther House in Pietermaritzburg (31)", "actualname": "Abrina Esther House", "subregion": "Pietermaritzburg", "beds": "31"}}, {"type": "Feature", "geometry": {"coordinates": [30.3794118, -29.6006068], "type": "Point"}, "properties": {"name": "The Haven in Pietermaritzburg (31)", "actualname": "The Haven", "subregion": "Pietermaritzburg", "beds": "31"}}, {"type": "Feature", "geometry": {"coordinates": [30.8384093, -29.8345022], "type": "Point"}, "properties": {"name": "Open Door Crisis Centre in Pinetown (31)", "actualname": "Open Door Crisis Centre", "subregion": "Pinetown", "beds": "31"}}, {"type": "Feature", "geometry": {"coordinates": [30.8384093, -29.8345022], "type": "Point"}, "properties": {"name": "Ethembeni Crisis Centre in Pinetown (31)", "actualname": "Ethembeni Crisis Centre", "subregion": "Pinetown", "beds": "31"}}, {"type": "Feature", "geometry": {"coordinates": [31.3798921, -29.133038], "type": "Point"}, "properties": {"name": "The House Of Hope And Recovery in Sundumbili (31)", "actualname": "The House Of Hope And Recovery", "subregion": "Sundumbili", "beds": "31"}}, {"type": "Feature", "geometry": {"coordinates": [29.4486263, -23.8961708], "type": "Point"}, "properties": {"name": "Ekuphumleni Restoration Home Thyrest in Polokwane (50)", "actualname": "Ekuphumleni Restoration Home Thyrest", "subregion": "Polokwane", "beds": "50"}}, {"type": "Feature", "geometry": {"coordinates": [29.4486263, -23.8961708], "type": "Point"}, "properties": {"name": "Khuseleka One Stop Centre (Government-Run Shelter) in Polokwane (50)", "actualname": "Khuseleka One Stop Centre (Government-Run Shelter)", "subregion": "Polokwane", "beds": "50"}}, {"type": "Feature", "geometry": {"coordinates": [30.5394232, -25.9573638], "type": "Point"}, "properties": {"name": "Badplass Shelter in Badplass (4)", "actualname": "Badplass Shelter", "subregion": "Badplass", "beds": "4"}}, {"type": "Feature", "geometry": {"coordinates": [28.7128468, -25.4317963], "type": "Point"}, "properties": {"name": "Leseding Women'S Shelter (Government-Run Shelter) in Kwamhlanga (4)", "actualname": "Leseding Women'S Shelter (Government-Run Shelter)", "subregion": "Kwamhlanga", "beds": "4"}}, {"type": "Feature", "geometry": {"coordinates": [31.283333, -25.633333], "type": "Point"}, "properties": {"name": "Louiville Shelter (Government-Run Shelter) in Low'S Creek (4)", "actualname": "Louiville Shelter (Government-Run Shelter)", "subregion": "Low'S Creek", "beds": "4"}}, {"type": "Feature", "geometry": {"coordinates": [31.2382884, -24.9865602], "type": "Point"}, "properties": {"name": "Calcultta Shelter in Malubane Mkhuhlu (4)", "actualname": "Calcultta Shelter", "subregion": "Malubane Mkhuhlu", "beds": "4"}}, {"type": "Feature", "geometry": {"coordinates": [29.4639354, -25.769902], "type": "Point"}, "properties": {"name": "Victim Support Centre (Shelter Closed But Psychosocial Services Still On Offer) in Middleburg (4)", "actualname": "Victim Support Centre (Shelter Closed But Psychosocial Services Still On Offer)", "subregion": "Middleburg", "beds": "4"}}, {"type": "Feature", "geometry": {"coordinates": [28.5344444, -25.1027778], "type": "Point"}, "properties": {"name": "Tirisano Victim Empowerment Centre in Mmametlhake (4)", "actualname": "Tirisano Victim Empowerment Centre", "subregion": "Mmametlhake", "beds": "4"}}, {"type": "Feature", "geometry": {"coordinates": [31.162448, -25.4260949], "type": "Point"}, "properties": {"name": "Grace Shelter in Msogwaba (4)", "actualname": "Grace Shelter", "subregion": "Msogwaba", "beds": "4"}}, {"type": "Feature", "geometry": {"coordinates": [30.9694163, -25.4752984], "type": "Point"}, "properties": {"name": "Grip Shelter in Nelspruit (4)", "actualname": "Grip Shelter", "subregion": "Nelspruit", "beds": "4"}}, {"type": "Feature", "geometry": {"coordinates": [31.2097022, -24.7241579], "type": "Point"}, "properties": {"name": "Mhala Shelter in Thulamahashe (4)", "actualname": "Mhala Shelter", "subregion": "Thulamahashe", "beds": "4"}}, {"type": "Feature", "geometry": {"coordinates": [27.5583897, -25.7538196], "type": "Point"}, "properties": {"name": "Grace Help Shelter in Mooi Nooi (118)", "actualname": "Grace Help Shelter", "subregion": "Mooi Nooi", "beds": "118"}}, {"type": "Feature", "geometry": {"coordinates": [24.0131202, -30.6766303], "type": "Point"}, "properties": {"name": "Ethembeni Community  And Trauma Centre in De Aar (6)", "actualname": "Ethembeni Community  And Trauma Centre", "subregion": "De Aar", "beds": "6"}}, {"type": "Feature", "geometry": {"coordinates": [21.2368084, -28.3952677], "type": "Point"}, "properties": {"name": "Bopanang One Stop Centre (Government-Run Shelter) in Upington (6)", "actualname": "Bopanang One Stop Centre (Government-Run Shelter)", "subregion": "Upington", "beds": "6"}}, {"type": "Feature", "geometry": {"coordinates": [24.7499112, -28.7282384], "type": "Point"}, "properties": {"name": "Kimberely Shelter (Government-Run Shelter) in Kimberley (6)", "actualname": "Kimberely Shelter (Government-Run Shelter)", "subregion": "Kimberley", "beds": "6"}}, {"type": "Feature", "geometry": {"coordinates": [24.7499112, -28.7282384], "type": "Point"}, "properties": {"name": "Tamar Shelter (Currenly Under Renovation) in Kimberley (6)", "actualname": "Tamar Shelter (Currenly Under Renovation)", "subregion": "Kimberley", "beds": "6"}}, {"type": "Feature", "geometry": {"coordinates": [18.5017948, -33.96526], "type": "Point"}, "properties": {"name": "Saartjie Baartman Womens Centre in Athlone (17)", "actualname": "Saartjie Baartman Womens Centre", "subregion": "Athlone", "beds": "17"}}, {"type": "Feature", "geometry": {"coordinates": [18.4869555, -33.5062662], "type": "Point"}, "properties": {"name": "United Sanctuary Against Abuse in Atlantis (17)", "actualname": "United Sanctuary Against Abuse", "subregion": "Atlantis", "beds": "17"}}, {"type": "Feature", "geometry": {"coordinates": [18.4721169, -33.9860035], "type": "Point"}, "properties": {"name": "Mater Domini Home  in Claremont (17)", "actualname": "Mater Domini Home ", "subregion": "Claremont", "beds": "17"}}, {"type": "Feature", "geometry": {"coordinates": [18.4187029, -34.1340882], "type": "Point"}, "properties": {"name": "The Safehouse in Fishhoek (17)", "actualname": "The Safehouse", "subregion": "Fishhoek", "beds": "17"}}, {"type": "Feature", "geometry": {"coordinates": [18.5017948, -33.96526], "type": "Point"}, "properties": {"name": "Carehaven in Gatesville (17)", "actualname": "Carehaven", "subregion": "Gatesville", "beds": "17"}}, {"type": "Feature", "geometry": {"coordinates": [22.4529878, -33.9881281], "type": "Point"}, "properties": {"name": "Bwp Oteniqua Refuse For Women & Children  in George East (17)", "actualname": "Bwp Oteniqua Refuse For Women & Children ", "subregion": "George East", "beds": "17"}}, {"type": "Feature", "geometry": {"coordinates": [18.5670952, -33.9820184], "type": "Point"}, "properties": {"name": "Dorothy Zihlangu Transitional Home in Gugulethu (17)", "actualname": "Dorothy Zihlangu Transitional Home", "subregion": "Gugulethu", "beds": "17"}}, {"type": "Feature", "geometry": {"coordinates": [18.4780523, -33.9958463], "type": "Point"}, "properties": {"name": "Sisters Incorporated in Kenilworth (17)", "actualname": "Sisters Incorporated", "subregion": "Kenilworth", "beds": "17"}}, {"type": "Feature", "geometry": {"coordinates": [18.6769451, -34.037444], "type": "Point"}, "properties": {"name": "Nonceba Centre Trust in Khayelitsha (17)", "actualname": "Nonceba Centre Trust", "subregion": "Khayelitsha", "beds": "17"}}, {"type": "Feature", "geometry": {"coordinates": [22.0834066, -34.1747356], "type": "Point"}, "properties": {"name": "Creating Effective Families  in Mossel Bay (17)", "actualname": "Creating Effective Families ", "subregion": "Mossel Bay", "beds": "17"}}, {"type": "Feature", "geometry": {"coordinates": [18.9621091, -33.7342304], "type": "Point"}, "properties": {"name": "Athlone House Of  Hope in Paarl (17)", "actualname": "Athlone House Of  Hope", "subregion": "Paarl", "beds": "17"}}, {"type": "Feature", "geometry": {"coordinates": [18.5808115, -33.9067916], "type": "Point"}, "properties": {"name": "St Mary'S Home Of Hope in Parow (17)", "actualname": "St Mary'S Home Of Hope", "subregion": "Parow", "beds": "17"}}, {"type": "Feature", "geometry": {"coordinates": [18.5581899, -34.034498], "type": "Point"}, "properties": {"name": "Sizakuenza  in Philipi (17)", "actualname": "Sizakuenza ", "subregion": "Philipi", "beds": "17"}}, {"type": "Feature", "geometry": {"coordinates": [18.6027185, -33.9226595], "type": "Point"}, "properties": {"name": "Dusk To Dawn  in Ravensmead (17)", "actualname": "Dusk To Dawn ", "subregion": "Ravensmead", "beds": "17"}}, {"type": "Feature", "geometry": {"coordinates": [18.860152, -33.9321045], "type": "Point"}, "properties": {"name": "L Abrie De Dieu Safe House in Stellenbosch (17)", "actualname": "L Abrie De Dieu Safe House", "subregion": "Stellenbosch", "beds": "17"}}, {"type": "Feature", "geometry": {"coordinates": [17.9946667, -32.9127799], "type": "Point"}, "properties": {"name": "Siyabonga Shelter in Vredenberg (17)", "actualname": "Siyabonga Shelter", "subregion": "Vredenberg", "beds": "17"}}, {"type": "Feature", "geometry": {"coordinates": [18.5440903, -33.9593668], "type": "Point"}, "properties": {"name": "Ihata  in Welcome Estate (17)", "actualname": "Ihata ", "subregion": "Welcome Estate", "beds": "17"}}, {"type": "Feature", "geometry": {"coordinates": [18.4497262, -33.929413], "type": "Point"}, "properties": {"name": "St. Annes Homes  in Woodstock (17)", "actualname": "St. Annes Homes ", "subregion": "Woodstock", "beds": "17"}}, {"type": "Feature", "geometry": {"coordinates": [19.4616074, -33.65389], "type": "Point"}, "properties": {"name": "House Of Hope in Worcester (17)", "actualname": "House Of Hope", "subregion": "Worcester", "beds": "17"}}, {"type": "Feature", "geometry": {"coordinates": [27.1323579, -32.2973193], "type": "Point"}, "properties": {"name": "Ikhwezi Women Support Centre in Cathcart (20)", "actualname": "Ikhwezi Women Support Centre", "subregion": "Cathcart", "beds": "20"}}, {"type": "Feature", "geometry": {"coordinates": [27.9058596, -32.9999033], "type": "Point"}, "properties": {"name": "Victory House  in East London, Southernwood (20)", "actualname": "Victory House ", "subregion": "East London, Southernwood", "beds": "20"}}, {"type": "Feature", "geometry": {"coordinates": [27.9058596, -32.9999033], "type": "Point"}, "properties": {"name": "Masimanyane Shelter  in East London, Southernwood (20)", "actualname": "Masimanyane Shelter ", "subregion": "East London, Southernwood", "beds": "20"}}, {"type": "Feature", "geometry": {"coordinates": [24.9101544, -34.0506714], "type": "Point"}, "properties": {"name": "On Eagles Wings Multipurpose Centre in Jeffrey'S Bay (20)", "actualname": "On Eagles Wings Multipurpose Centre", "subregion": "Jeffrey'S Bay", "beds": "20"}}, {"type": "Feature", "geometry": {"coordinates": [27.4203974, -32.8938109], "type": "Point"}, "properties": {"name": "Khanyisa Victim Empowerment Centre in King Williams Town (20)", "actualname": "Khanyisa Victim Empowerment Centre", "subregion": "King Williams Town", "beds": "20"}}, {"type": "Feature", "geometry": {"coordinates": [25.6022423, -33.9608369], "type": "Point"}, "properties": {"name": "Rape Crisis Centre (Shelter Under Construction) in Port Elizabeth (20)", "actualname": "Rape Crisis Centre (Shelter Under Construction)", "subregion": "Port Elizabeth", "beds": "20"}}, {"type": "Feature", "geometry": {"coordinates": [25.4141193, -33.768717], "type": "Point"}, "properties": {"name": "Kwanobuhle Outreach Centre (Government-Run Shelter) in Uitenhage (20)", "actualname": "Kwanobuhle Outreach Centre (Government-Run Shelter)", "subregion": "Uitenhage", "beds": "20"}}, {"type": "Feature", "geometry": {"coordinates": [28.3111262, -28.2423025], "type": "Point"}, "properties": {"name": "Child & Family Welfare in Bethlehem (23)", "actualname": "Child & Family Welfare", "subregion": "Bethlehem", "beds": "23"}}, {"type": "Feature", "geometry": {"coordinates": [27.4908738, -26.9110891], "type": "Point"}, "properties": {"name": "Tumahole Victim Support Centre  in Parys (23)", "actualname": "Tumahole Victim Support Centre ", "subregion": "Parys", "beds": "23"}}, {"type": "Feature", "geometry": {"coordinates": [28.824722, -28.5530273], "type": "Point"}, "properties": {"name": "Thusanang Advice Centre Shelter  in Qwaqwa (23)", "actualname": "Thusanang Advice Centre Shelter ", "subregion": "Qwaqwa", "beds": "23"}}, {"type": "Feature", "geometry": {"coordinates": [26.7732162, -28.0045655], "type": "Point"}, "properties": {"name": "Goldfields Family Advice Organisation in Welkom (23)", "actualname": "Goldfields Family Advice Organisation", "subregion": "Welkom", "beds": "23"}}, {"type": "Feature", "geometry": {"coordinates": [28.0976369, -26.1033012], "type": "Point"}, "properties": {"name": "Bombani Shelter in Alexandra (24)", "actualname": "Bombani Shelter", "subregion": "Alexandra", "beds": "24"}}, {"type": "Feature", "geometry": {"coordinates": [28.3695699, -26.1510854], "type": "Point"}, "properties": {"name": "Antioch Place Of Shelter in Benoni (24)", "actualname": "Antioch Place Of Shelter", "subregion": "Benoni", "beds": "24"}}, {"type": "Feature", "geometry": {"coordinates": [28.1628568, -26.2185888], "type": "Point"}, "properties": {"name": "Ctc Bethesda House in Ekurhuleni (24)", "actualname": "Ctc Bethesda House", "subregion": "Ekurhuleni", "beds": "24"}}, {"type": "Feature", "geometry": {"coordinates": [28.1239717, -26.3223942], "type": "Point"}, "properties": {"name": "Amcare Hannah House in Alberton (24)", "actualname": "Amcare Hannah House", "subregion": "Alberton", "beds": "24"}}, {"type": "Feature", "geometry": {"coordinates": [28.1628568, -26.2185888], "type": "Point"}, "properties": {"name": "Powa (East Rand) in Ekurhuleni (24)", "actualname": "Powa (East Rand)", "subregion": "Ekurhuleni", "beds": "24"}}, {"type": "Feature", "geometry": {"coordinates": [28.1628568, -26.2185888], "type": "Point"}, "properties": {"name": "Mercy Haven in Ekurhuleni (24)", "actualname": "Mercy Haven", "subregion": "Ekurhuleni", "beds": "24"}}, {"type": "Feature", "geometry": {"coordinates": [28.1628568, -26.2185888], "type": "Point"}, "properties": {"name": "House Of Hope (T/A Leratong Crisis Centre) in Ekurhuleni (24)", "actualname": "House Of Hope (T/A Leratong Crisis Centre)", "subregion": "Ekurhuleni", "beds": "24"}}, {"type": "Feature", "geometry": {"coordinates": [28.4221519, -26.1452452], "type": "Point"}, "properties": {"name": "Theodora Ndaba Victim Support Centre in Daveyton (24)", "actualname": "Theodora Ndaba Victim Support Centre", "subregion": "Daveyton", "beds": "24"}}, {"type": "Feature", "geometry": {"coordinates": [27.9717606, -26.1704415], "type": "Point"}, "properties": {"name": "Usindiso in Johannesburg Metro (24)", "actualname": "Usindiso", "subregion": "Johannesburg Metro", "beds": "24"}}, {"type": "Feature", "geometry": {"coordinates": [27.9717606, -26.1704415], "type": "Point"}, "properties": {"name": "Ikhaya Lethemba (Government-Run Shelter) in Johannesburg Metro (24)", "actualname": "Ikhaya Lethemba (Government-Run Shelter)", "subregion": "Johannesburg Metro", "beds": "24"}}, {"type": "Feature", "geometry": {"coordinates": [27.9717606, -26.1704415], "type": "Point"}, "properties": {"name": "Eldorado Park Women'S Forum in Johannesburg Metro (24)", "actualname": "Eldorado Park Women'S Forum", "subregion": "Johannesburg Metro", "beds": "24"}}, {"type": "Feature", "geometry": {"coordinates": [27.9717606, -26.1704415], "type": "Point"}, "properties": {"name": "Home Of Hope in Johannesburg Metro (24)", "actualname": "Home Of Hope", "subregion": "Johannesburg Metro", "beds": "24"}}, {"type": "Feature", "geometry": {"coordinates": [27.9717606, -26.1704415], "type": "Point"}, "properties": {"name": "Little Saints Bethany in Johannesburg Metro (24)", "actualname": "Little Saints Bethany", "subregion": "Johannesburg Metro", "beds": "24"}}, {"type": "Feature", "geometry": {"coordinates": [27.8309784, -26.3140736], "type": "Point"}, "properties": {"name": "Nisaa Institute For Women'S Development in Lenasia Extension 1 (24)", "actualname": "Nisaa Institute For Women'S Development", "subregion": "Lenasia Extension 1", "beds": "24"}}, {"type": "Feature", "geometry": {"coordinates": [28.2499001, -26.1789171], "type": "Point"}, "properties": {"name": "Beth Shan Shelter in North Rand (24)", "actualname": "Beth Shan Shelter", "subregion": "North Rand", "beds": "24"}}, {"type": "Feature", "geometry": {"coordinates": [28.7666681, -25.7732834], "type": "Point"}, "properties": {"name": "Mercy House in Sizanani Village (24)", "actualname": "Mercy House", "subregion": "Sizanani Village", "beds": "24"}}, {"type": "Feature", "geometry": {"coordinates": [28.2499001, -26.1789171], "type": "Point"}, "properties": {"name": "Mali Martin in North Rand (24)", "actualname": "Mali Martin", "subregion": "North Rand", "beds": "24"}}, {"type": "Feature", "geometry": {"coordinates": [28.2499001, -26.1789171], "type": "Point"}, "properties": {"name": "The Potter House in North Rand (24)", "actualname": "The Potter House", "subregion": "North Rand", "beds": "24"}}, {"type": "Feature", "geometry": {"coordinates": [28.1561533, -25.7496565], "type": "Point"}, "properties": {"name": "Youth For Survival in Pretoria West (24)", "actualname": "Youth For Survival", "subregion": "Pretoria West", "beds": "24"}}, {"type": "Feature", "geometry": {"coordinates": [28.0830047, -25.7730891], "type": "Point"}, "properties": {"name": "Re-Bafenyi Victim Empowerment in Pretoria, Atteridgeville (24)", "actualname": "Re-Bafenyi Victim Empowerment", "subregion": "Pretoria, Atteridgeville", "beds": "24"}}, {"type": "Feature", "geometry": {"coordinates": [28.2058768, -26.6833196], "type": "Point"}, "properties": {"name": "Bella Maria in Sedibeng (24)", "actualname": "Bella Maria", "subregion": "Sedibeng", "beds": "24"}}, {"type": "Feature", "geometry": {"coordinates": [27.4556388, -26.3213939], "type": "Point"}, "properties": {"name": "Are Areng in West Rand (24)", "actualname": "Are Areng", "subregion": "West Rand", "beds": "24"}}, {"type": "Feature", "geometry": {"coordinates": [27.4556388, -26.3213939], "type": "Point"}, "properties": {"name": "Polokego in West Rand (24)", "actualname": "Polokego", "subregion": "West Rand", "beds": "24"}}, {"type": "Feature", "geometry": {"coordinates": [27.3851496, -26.4011578], "type": "Point"}, "properties": {"name": "Savf Deurgangshuis in Carltonville (24)", "actualname": "Savf Deurgangshuis", "subregion": "Carltonville", "beds": "24"}}, {"type": "Feature", "geometry": {"coordinates": [27.9161125, -26.1794173], "type": "Point"}, "properties": {"name": "Powa (West Rand) in Florida (24)", "actualname": "Powa (West Rand)", "subregion": "Florida", "beds": "24"}}, {"type": "Feature", "geometry": {"coordinates": [27.4556388, -26.3213939], "type": "Point"}, "properties": {"name": "Wawa Toekomsrus in West Rand (24)", "actualname": "Wawa Toekomsrus", "subregion": "West Rand", "beds": "24"}}, {"type": "Feature", "geometry": {"coordinates": [30.2343141, -28.1649792], "type": "Point"}, "properties": {"name": "Dundee Crisis Centre in Dundee (31)", "actualname": "Dundee Crisis Centre", "subregion": "Dundee", "beds": "31"}}, {"type": "Feature", "geometry": {"coordinates": [31.0218404, -29.8586804], "type": "Point"}, "properties": {"name": "Kerr House in Durban (31)", "actualname": "Kerr House", "subregion": "Durban", "beds": "31"}}, {"type": "Feature", "geometry": {"coordinates": [31.0218404, -29.8586804], "type": "Point"}, "properties": {"name": "Kenilworth Respite Centre in Durban (31)", "actualname": "Kenilworth Respite Centre", "subregion": "Durban", "beds": "31"}}, {"type": "Feature", "geometry": {"coordinates": [30.3794118, -29.6006068], "type": "Point"}, "properties": {"name": "Abrina Esther House in Pietermaritzburg (31)", "actualname": "Abrina Esther House", "subregion": "Pietermaritzburg", "beds": "31"}}, {"type": "Feature", "geometry": {"coordinates": [30.3794118, -29.6006068], "type": "Point"}, "properties": {"name": "The Haven in Pietermaritzburg (31)", "actualname": "The Haven", "subregion": "Pietermaritzburg", "beds": "31"}}, {"type": "Feature", "geometry": {"coordinates": [30.8384093, -29.8345022], "type": "Point"}, "properties": {"name": "Open Door Crisis Centre in Pinetown (31)", "actualname": "Open Door Crisis Centre", "subregion": "Pinetown", "beds": "31"}}, {"type": "Feature", "geometry": {"coordinates": [30.8384093, -29.8345022], "type": "Point"}, "properties": {"name": "Ethembeni Crisis Centre in Pinetown (31)", "actualname": "Ethembeni Crisis Centre", "subregion": "Pinetown", "beds": "31"}}, {"type": "Feature", "geometry": {"coordinates": [31.3798921, -29.133038], "type": "Point"}, "properties": {"name": "The House Of Hope And Recovery in Sundumbili (31)", "actualname": "The House Of Hope And Recovery", "subregion": "Sundumbili", "beds": "31"}}, {"type": "Feature", "geometry": {"coordinates": [29.4486263, -23.8961708], "type": "Point"}, "properties": {"name": "Ekuphumleni Restoration Home Thyrest in Polokwane (50)", "actualname": "Ekuphumleni Restoration Home Thyrest", "subregion": "Polokwane", "beds": "50"}}, {"type": "Feature", "geometry": {"coordinates": [29.4486263, -23.8961708], "type": "Point"}, "properties": {"name": "Khuseleka One Stop Centre (Government-Run Shelter) in Polokwane (50)", "actualname": "Khuseleka One Stop Centre (Government-Run Shelter)", "subregion": "Polokwane", "beds": "50"}}, {"type": "Feature", "geometry": {"coordinates": [30.5394232, -25.9573638], "type": "Point"}, "properties": {"name": "Badplass Shelter in Badplass (4)", "actualname": "Badplass Shelter", "subregion": "Badplass", "beds": "4"}}, {"type": "Feature", "geometry": {"coordinates": [28.7128468, -25.4317963], "type": "Point"}, "properties": {"name": "Leseding Women'S Shelter (Government-Run Shelter) in Kwamhlanga (4)", "actualname": "Leseding Women'S Shelter (Government-Run Shelter)", "subregion": "Kwamhlanga", "beds": "4"}}, {"type": "Feature", "geometry": {"coordinates": [31.283333, -25.633333], "type": "Point"}, "properties": {"name": "Louiville Shelter (Government-Run Shelter) in Low'S Creek (4)", "actualname": "Louiville Shelter (Government-Run Shelter)", "subregion": "Low'S Creek", "beds": "4"}}, {"type": "Feature", "geometry": {"coordinates": [31.2382884, -24.9865602], "type": "Point"}, "properties": {"name": "Calcultta Shelter in Malubane Mkhuhlu (4)", "actualname": "Calcultta Shelter", "subregion": "Malubane Mkhuhlu", "beds": "4"}}, {"type": "Feature", "geometry": {"coordinates": [29.4639354, -25.769902], "type": "Point"}, "properties": {"name": "Victim Support Centre (Shelter Closed But Psychosocial Services Still On Offer) in Middleburg (4)", "actualname": "Victim Support Centre (Shelter Closed But Psychosocial Services Still On Offer)", "subregion": "Middleburg", "beds": "4"}}, {"type": "Feature", "geometry": {"coordinates": [28.5344444, -25.1027778], "type": "Point"}, "properties": {"name": "Tirisano Victim Empowerment Centre in Mmametlhake (4)", "actualname": "Tirisano Victim Empowerment Centre", "subregion": "Mmametlhake", "beds": "4"}}, {"type": "Feature", "geometry": {"coordinates": [31.162448, -25.4260949], "type": "Point"}, "properties": {"name": "Grace Shelter in Msogwaba (4)", "actualname": "Grace Shelter", "subregion": "Msogwaba", "beds": "4"}}, {"type": "Feature", "geometry": {"coordinates": [30.9694163, -25.4752984], "type": "Point"}, "properties": {"name": "Grip Shelter in Nelspruit (4)", "actualname": "Grip Shelter", "subregion": "Nelspruit", "beds": "4"}}, {"type": "Feature", "geometry": {"coordinates": [31.2097022, -24.7241579], "type": "Point"}, "properties": {"name": "Mhala Shelter in Thulamahashe (4)", "actualname": "Mhala Shelter", "subregion": "Thulamahashe", "beds": "4"}}, {"type": "Feature", "geometry": {"coordinates": [27.5583897, -25.7538196], "type": "Point"}, "properties": {"name": "Grace Help Shelter in Mooi Nooi (118)", "actualname": "Grace Help Shelter", "subregion": "Mooi Nooi", "beds": "118"}}, {"type": "Feature", "geometry": {"coordinates": [24.0131202, -30.6766303], "type": "Point"}, "properties": {"name": "Ethembeni Community  And Trauma Centre in De Aar (6)", "actualname": "Ethembeni Community  And Trauma Centre", "subregion": "De Aar", "beds": "6"}}, {"type": "Feature", "geometry": {"coordinates": [21.2368084, -28.3952677], "type": "Point"}, "properties": {"name": "Bopanang One Stop Centre (Government-Run Shelter) in Upington (6)", "actualname": "Bopanang One Stop Centre (Government-Run Shelter)", "subregion": "Upington", "beds": "6"}}, {"type": "Feature", "geometry": {"coordinates": [24.7499112, -28.7282384], "type": "Point"}, "properties": {"name": "Kimberely Shelter (Government-Run Shelter) in Kimberley (6)", "actualname": "Kimberely Shelter (Government-Run Shelter)", "subregion": "Kimberley", "beds": "6"}}, {"type": "Feature", "geometry": {"coordinates": [24.7499112, -28.7282384], "type": "Point"}, "properties": {"name": "Tamar Shelter (Currenly Under Renovation) in Kimberley (6)", "actualname": "Tamar Shelter (Currenly Under Renovation)", "subregion": "Kimberley", "beds": "6"}}, {"type": "Feature", "geometry": {"coordinates": [18.5017948, -33.96526], "type": "Point"}, "properties": {"name": "Saartjie Baartman Womens Centre in Athlone (17)", "actualname": "Saartjie Baartman Womens Centre", "subregion": "Athlone", "beds": "17"}}, {"type": "Feature", "geometry": {"coordinates": [18.4869555, -33.5062662], "type": "Point"}, "properties": {"name": "United Sanctuary Against Abuse in Atlantis (17)", "actualname": "United Sanctuary Against Abuse", "subregion": "Atlantis", "beds": "17"}}, {"type": "Feature", "geometry": {"coordinates": [18.4721169, -33.9860035], "type": "Point"}, "properties": {"name": "Mater Domini Home  in Claremont (17)", "actualname": "Mater Domini Home ", "subregion": "Claremont", "beds": "17"}}, {"type": "Feature", "geometry": {"coordinates": [18.4187029, -34.1340882], "type": "Point"}, "properties": {"name": "The Safehouse in Fishhoek (17)", "actualname": "The Safehouse", "subregion": "Fishhoek", "beds": "17"}}, {"type": "Feature", "geometry": {"coordinates": [18.5017948, -33.96526], "type": "Point"}, "properties": {"name": "Carehaven in Gatesville (17)", "actualname": "Carehaven", "subregion": "Gatesville", "beds": "17"}}, {"type": "Feature", "geometry": {"coordinates": [22.4529878, -33.9881281], "type": "Point"}, "properties": {"name": "Bwp Oteniqua Refuse For Women & Children  in George East (17)", "actualname": "Bwp Oteniqua Refuse For Women & Children ", "subregion": "George East", "beds": "17"}}, {"type": "Feature", "geometry": {"coordinates": [18.5670952, -33.9820184], "type": "Point"}, "properties": {"name": "Dorothy Zihlangu Transitional Home in Gugulethu (17)", "actualname": "Dorothy Zihlangu Transitional Home", "subregion": "Gugulethu", "beds": "17"}}, {"type": "Feature", "geometry": {"coordinates": [18.4780523, -33.9958463], "type": "Point"}, "properties": {"name": "Sisters Incorporated in Kenilworth (17)", "actualname": "Sisters Incorporated", "subregion": "Kenilworth", "beds": "17"}}, {"type": "Feature", "geometry": {"coordinates": [18.6769451, -34.037444], "type": "Point"}, "properties": {"name": "Nonceba Centre Trust in Khayelitsha (17)", "actualname": "Nonceba Centre Trust", "subregion": "Khayelitsha", "beds": "17"}}, {"type": "Feature", "geometry": {"coordinates": [22.0834066, -34.1747356], "type": "Point"}, "properties": {"name": "Creating Effective Families  in Mossel Bay (17)", "actualname": "Creating Effective Families ", "subregion": "Mossel Bay", "beds": "17"}}, {"type": "Feature", "geometry": {"coordinates": [18.9621091, -33.7342304], "type": "Point"}, "properties": {"name": "Athlone House Of  Hope in Paarl (17)", "actualname": "Athlone House Of  Hope", "subregion": "Paarl", "beds": "17"}}, {"type": "Feature", "geometry": {"coordinates": [18.5808115, -33.9067916], "type": "Point"}, "properties": {"name": "St Mary'S Home Of Hope in Parow (17)", "actualname": "St Mary'S Home Of Hope", "subregion": "Parow", "beds": "17"}}, {"type": "Feature", "geometry": {"coordinates": [18.5581899, -34.034498], "type": "Point"}, "properties": {"name": "Sizakuenza  in Philipi (17)", "actualname": "Sizakuenza ", "subregion": "Philipi", "beds": "17"}}, {"type": "Feature", "geometry": {"coordinates": [18.6027185, -33.9226595], "type": "Point"}, "properties": {"name": "Dusk To Dawn  in Ravensmead (17)", "actualname": "Dusk To Dawn ", "subregion": "Ravensmead", "beds": "17"}}, {"type": "Feature", "geometry": {"coordinates": [18.860152, -33.9321045], "type": "Point"}, "properties": {"name": "L Abrie De Dieu Safe House in Stellenbosch (17)", "actualname": "L Abrie De Dieu Safe House", "subregion": "Stellenbosch", "beds": "17"}}, {"type": "Feature", "geometry": {"coordinates": [17.9946667, -32.9127799], "type": "Point"}, "properties": {"name": "Siyabonga Shelter in Vredenberg (17)", "actualname": "Siyabonga Shelter", "subregion": "Vredenberg", "beds": "17"}}, {"type": "Feature", "geometry": {"coordinates": [18.5440903, -33.9593668], "type": "Point"}, "properties": {"name": "Ihata  in Welcome Estate (17)", "actualname": "Ihata ", "subregion": "Welcome Estate", "beds": "17"}}, {"type": "Feature", "geometry": {"coordinates": [18.4497262, -33.929413], "type": "Point"}, "properties": {"name": "St. Annes Homes  in Woodstock (17)", "actualname": "St. Annes Homes ", "subregion": "Woodstock", "beds": "17"}}, {"type": "Feature", "geometry": {"coordinates": [19.4616074, -33.65389], "type": "Point"}, "properties": {"name": "House Of Hope in Worcester (17)", "actualname": "House Of Hope", "subregion": "Worcester", "beds": "17"}},