{"type": "FeatureCollection", "features": [{"type": "Feature", "geometry": {"coordinates": [18.5017948, -33.96526], "type": "Point"}, "properties": {"name": "Saartjie Baartman Womens Centre in Athlone (17)", "actualname": "Saartjie Baartman Womens Centre", "subregion": "Athlone", "beds": "17"}}, {"type": "Feature", "geometry": {"coordinates": [18.4869555, -33.5062662], "type": "Point"}, "properties": {"name": "United Sanctuary Against Abuse in Atlantis (17)", "actualname": "United Sanctuary Against Abuse", "subregion": "Atlantis", "beds": "17"}}, {"type": "Feature", "geometry": {"coordinates": [18.4721169, -33.9860035], "type": "Point"}, "properties": {"name": "Mater Domini Home  in Claremont (17)", "actualname": "Mater Domini Home ", "subregion": "Claremont", "beds": "17"}}, {"type": "Feature", "geometry": {"coordinates": [18.4187029, -34.1340882], "type": "Point"}, "properties": {"name": "The Safehouse in Fishhoek (17)", "actualname": "The Safehouse", "subregion": "Fishhoek", "beds": "17"}}, {"type": "Feature", "geometry": {"coordinates": [18.5017948, -33.96526], "type": "Point"}, "properties": {"name": "Carehaven in Gatesville (17)", "actualname": "Carehaven", "subregion": "Gatesville", "beds": "17"}}, {"type": "Feature", "geometry": {"coordinates": [22.4529878, -33.9881281], "type": "Point"}, "properties": {"name": "Bwp Oteniqua Refuse For Women & Children  in George East (17)", "actualname": "Bwp Oteniqua Refuse For Women & Children ", "subregion": "George East", "beds": "17"}}, {"type": "Feature", "geometry": {"coordinates": [18.5670952, -33.9820184], "type": "Point"}, "properties": {"name": "Dorothy Zihlangu Transitional Home in Gugulethu (17)", "actualname": "Dorothy Zihlangu Transitional Home", "subregion": "Gugulethu", "beds": "17"}}, {"type": "Feature", "geometry": {"coordinates": [18.4780523, -33.9958463], "type": "Point"}, "properties": {"name": "Sisters Incorporated in Kenilworth (17)", "actualname": "Sisters Incorporated", "subregion": "Kenilworth", "beds": "17"}}, {"type": "Feature", "geometry": {"coordinates": [18.6769451, -34.037444], "type": "Point"}, "properties": {"name": "Nonceba Centre Trust in Khayelitsha (17)", "actualname": "Nonceba Centre Trust", "subregion": "Khayelitsha", "beds": "17"}}, {"type": "Feature", "geometry": {"coordinates": [22.0834066, -34.1747356], "type": "Point"}, "properties": {"name": "Creating Effective Families  in Mossel Bay (17)", "actualname": "Creating Effective Families ", "subregion": "Mossel Bay", "beds": "17"}}, {"type": "Feature", "geometry": {"coordinates": [18.9621091, -33.7342304], "type": "Point"}, "properties": {"name": "Athlone House Of  Hope in Paarl (17)", "actualname": "Athlone House Of  Hope", "subregion": "Paarl", "beds": "17"}}, {"type": "Feature", "geometry": {"coordinates": [18.5808115, -33.9067916], "type": "Point"}, "properties": {"name": "St Mary'S Home Of Hope in Parow (17)", "actualname": "St Mary'S Home Of Hope", "subregion": "Parow", "beds": "17"}}, {"type": "Feature", "geometry": {"coordinates": [18.5581899, -34.034498], "type": "Point"}, "properties": {"name": "Sizakuenza  in Philipi (17)", "actualname": "Sizakuenza ", "subregion": "Philipi", "beds": "17"}}, {"type": "Feature", "geometry": {"coordinates": [18.6027185, -33.9226595], "type": "Point"}, "properties": {"name": "Dusk To Dawn  in Ravensmead (17)", "actualname": "Dusk To Dawn ", "subregion": "Ravensmead", "beds": "17"}}, {"type": "Feature", "geometry": {"coordinates": [18.860152, -33.9321045], "type": "Point"}, "properties": {"name": "L Abrie De Dieu Safe House in Stellenbosch (17)", "actualname": "L Abrie De Dieu Safe House", "subregion": "Stellenbosch", "beds": "17"}}, {"type": "Feature", "geometry": {"coordinates": [17.9946667, -32.9127799], "type": "Point"}, "properties": {"name": "Siyabonga Shelter in Vredenberg (17)", "actualname": "Siyabonga Shelter", "subregion": "Vredenberg", "beds": "17"}}, {"type": "Feature", "geometry": {"coordinates": [18.5440903, -33.9593668], "type": "Point"}, "properties": {"name": "Ihata  in Welcome Estate (17)", "actualname": "Ihata ", "subregion": "Welcome Estate", "beds": "17"}}, {"type": "Feature", "geometry": {"coordinates": [18.4497262, -33.929413], "type": "Point"}, "properties": {"name": "St. Annes Homes  in Woodstock (17)", "actualname": "St. Annes Homes ", "subregion": "Woodstock", "beds": "17"}}, {"type": "Feature", "geometry": {"coordinates": [19.4616074, -33.65389], "type": "Point"}, "properties": {"name": "House Of Hope in Worcester (17)", "actualname": "House Of Hope", "subregion": "Worcester", "beds": "17"}}], "name": "WC"}